var lastupdated = new Date("October 27, 2016 19:52:19");
var points =[
  {
    "parcelid": "E20 01107 0067", 
    "lon": "-84.250335", 
    "claimed": false, 
    "street": "3801 SALEM AVE, HARRISON TOWNSHIP", 
    "lot": false, 
    "lat": "39.797032"
  }, 
  {
    "parcelid": "E20 17105A0132", 
    "lon": "-84.249169", 
    "claimed": false, 
    "street": "2200 DEERING AVE, HARRISON TOWNSHIP", 
    "lot": false, 
    "lat": "39.788926"
  }, 
  {
    "parcelid": "E20 17417 0005", 
    "lon": "-84.253957", 
    "claimed": false, 
    "street": "4002 BOGGS AVE, HARRISON TOWNSHIP", 
    "lot": false, 
    "lat": "39.808493"
  }, 
  {
    "parcelid": "H33300905 0085", 
    "lon": "-84.262734", 
    "claimed": false, 
    "street": "4244 GARDENDALE AVE, TROTWOOD", 
    "lot": false, 
    "lat": "39.767088"
  }, 
  {
    "parcelid": "K46 00904 0045", 
    "lon": "-84.276269", 
    "claimed": false, 
    "street": "850 LOUIS ST, MIAMISBURG", 
    "lot": true, 
    "lat": "39.653352"
  }, 
  {
    "parcelid": "H33300901 0084", 
    "lon": "-84.270787", 
    "claimed": false, 
    "street": "5225 W 2ND ST, TROTWOOD", 
    "lot": true, 
    "lat": "39.753522"
  }, 
  {
    "parcelid": "H33 00306 0016", 
    "lon": "-84.315565", 
    "claimed": false, 
    "street": "MAIN ST, TROTWOOD", 
    "lot": true, 
    "lat": "39.797579"
  }, 
  {
    "parcelid": "G27 18316 0051", 
    "lon": "-84.270062", 
    "claimed": false, 
    "street": "4848 ERICSON AVE, JEFFERSON TOWNSHIP", 
    "lot": false, 
    "lat": "39.727684"
  }, 
  {
    "parcelid": "E20 17102 0160", 
    "lon": "-84.248578", 
    "claimed": false, 
    "street": "3620 PITTSBURG AVE, HARRISON TOWNSHIP", 
    "lot": true, 
    "lat": "39.800630"
  }, 
  {
    "parcelid": "P70 00202 0242", 
    "lon": "-84.171763", 
    "claimed": false, 
    "street": "SANDUSKY ST, HUBER HEIGHTS", 
    "lot": true, 
    "lat": "39.845816"
  }, 
  {
    "parcelid": "E21 19003 0451", 
    "lon": "-84.157758", 
    "claimed": false, 
    "street": "EARLWOOD DR, HARRISON TOWNSHIP", 
    "lot": true, 
    "lat": "39.826730"
  }, 
  {
    "parcelid": "H33 02108 0046", 
    "lon": "-84.341631", 
    "claimed": false, 
    "street": "SHILOH SPRINGS RD, TROTWOOD", 
    "lot": true, 
    "lat": "39.817711"
  }, 
  {
    "parcelid": "H33 01211 0026", 
    "lon": "-84.269285", 
    "claimed": false, 
    "street": "1620 AZALEA DR, TROTWOOD", 
    "lot": false, 
    "lat": "39.770283"
  }, 
  {
    "parcelid": "H33 01120 0027", 
    "lon": "-84.263938", 
    "claimed": false, 
    "street": "4566 LIVE OAK DR, TROTWOOD", 
    "lot": false, 
    "lat": "39.770462"
  }, 
  {
    "parcelid": "H33 02102 0037", 
    "lon": "-84.292148", 
    "claimed": false, 
    "street": "OLIVE RD, TROTWOOD", 
    "lot": true, 
    "lat": "39.820649"
  }, 
  {
    "parcelid": "H33 02311 0071", 
    "lon": "-84.291435", 
    "claimed": false, 
    "street": "612 OLIVE RD, TROTWOOD", 
    "lot": true, 
    "lat": "39.755727"
  }, 
  {
    "parcelid": "M60 03207 0082", 
    "lon": "-84.313296", 
    "claimed": false, 
    "street": "6792 SALEM AVE, CLAYTON", 
    "lot": true, 
    "lat": "39.840884"
  }, 
  {
    "parcelid": "G29 18205 0025", 
    "lon": "-84.294729", 
    "claimed": false, 
    "street": "125 IONA AVE, JEFFERSON TOWNSHIP", 
    "lot": true, 
    "lat": "39.743963"
  }, 
  {
    "parcelid": "G27 24506 0045", 
    "lon": "-84.304686", 
    "claimed": false, 
    "street": "121 KNOX AVE, JEFFERSON TOWNSHIP", 
    "lot": false, 
    "lat": "39.743845"
  }, 
  {
    "parcelid": "H33300813 0028", 
    "lon": "-84.288159", 
    "claimed": false, 
    "street": "NORFOLK AVE, TROTWOOD", 
    "lot": true, 
    "lat": "39.749757"
  }, 
  {
    "parcelid": "H33 01212 0003", 
    "lon": "-84.270939", 
    "claimed": false, 
    "street": "1511 ELAINE ST, TROTWOOD", 
    "lot": false, 
    "lat": "39.768767"
  }, 
  {
    "parcelid": "H33300821 0052", 
    "lon": "-84.281497", 
    "claimed": false, 
    "street": "183 MORGAN AVE, TROTWOOD", 
    "lot": true, 
    "lat": "39.749063"
  }, 
  {
    "parcelid": "H33 01220 0039", 
    "lon": "-84.275701", 
    "claimed": false, 
    "street": "5139 RUCKS RD, TROTWOOD", 
    "lot": false, 
    "lat": "39.766297"
  }, 
  {
    "parcelid": "L55 16505 0004", 
    "lon": "-84.462136", 
    "claimed": true, 
    "street": "HARRIET LN, PERRY TOWNSHIP", 
    "lot": true, 
    "lat": "39.811889"
  }, 
  {
    "parcelid": "J44121003 0003", 
    "lon": "-84.242615", 
    "claimed": false, 
    "street": "SELLARS RD, MORAINE", 
    "lot": false, 
    "lat": "39.687839"
  }, 
  {
    "parcelid": "K50 18421 0174", 
    "lon": "-84.291441", 
    "claimed": false, 
    "street": "TENTH AVE, MIAMI TOWNSHIP", 
    "lot": true, 
    "lat": "39.590155"
  }, 
  {
    "parcelid": "E20 17003 0030", 
    "lon": "-84.210774", 
    "claimed": false, 
    "street": "52 FER DON RD, HARRISON TOWNSHIP", 
    "lot": false, 
    "lat": "39.802001"
  }, 
  {
    "parcelid": "N64 02515 0012", 
    "lon": "-84.112723", 
    "claimed": false, 
    "street": "3248 REVLON DR, KETTERING", 
    "lot": false, 
    "lat": "39.696547"
  }, 
  {
    "parcelid": "E21 19003 0459", 
    "lon": "-84.158733", 
    "claimed": false, 
    "street": "BIRCH DR, HARRISON TOWNSHIP", 
    "lot": true, 
    "lat": "39.826763"
  }, 
  {
    "parcelid": "L53 02907 0060", 
    "lon": "-84.473490", 
    "claimed": false, 
    "street": "15565 EATON PIKE, PERRY TOWNSHIP", 
    "lot": false, 
    "lat": "39.745245"
  }, 
  {
    "parcelid": "H33301015 0050", 
    "lon": "-84.258648", 
    "claimed": false, 
    "street": "4169 MELGROVE AVE, TROTWOOD", 
    "lot": false, 
    "lat": "39.801357"
  }, 
  {
    "parcelid": "H33 02202 0074", 
    "lon": "-84.276037", 
    "claimed": false, 
    "street": "WOLF CREEK PIKE, TROTWOOD", 
    "lot": true, 
    "lat": "39.792024"
  }, 
  {
    "parcelid": "E21 19003 0268", 
    "lon": "-84.157799", 
    "claimed": false, 
    "street": "ARBOR AVE, HARRISON TOWNSHIP", 
    "lot": true, 
    "lat": "39.829090"
  }, 
  {
    "parcelid": "I39 00122 0085", 
    "lon": "-84.129745", 
    "claimed": false, 
    "street": "OPPERMAN AVE, RIVERSIDE", 
    "lot": true, 
    "lat": "39.773861"
  }, 
  {
    "parcelid": "H33 00408 0004", 
    "lon": "-84.303497", 
    "claimed": false, 
    "street": "410 GLENVIEW RD, TROTWOOD", 
    "lot": false, 
    "lat": "39.801675"
  }, 
  {
    "parcelid": "H33300813 0032", 
    "lon": "-84.288135", 
    "claimed": false, 
    "street": "NORFOLK AVE, TROTWOOD", 
    "lot": true, 
    "lat": "39.749318"
  }, 
  {
    "parcelid": "H33301011 0018", 
    "lon": "-84.266919", 
    "claimed": false, 
    "street": "4640 NEVADA AVE, TROTWOOD", 
    "lot": false, 
    "lat": "39.802250"
  }, 
  {
    "parcelid": "I39101502 0030", 
    "lon": "-84.117875", 
    "claimed": false, 
    "street": "1726 RAUSCH AVE, RIVERSIDE", 
    "lot": false, 
    "lat": "39.740891"
  }, 
  {
    "parcelid": "G29 18202A0117", 
    "lon": "-84.272422", 
    "claimed": false, 
    "street": "COLGATE AVE, JEFFERSON TOWNSHIP", 
    "lot": true, 
    "lat": "39.741041"
  }, 
  {
    "parcelid": "E21 19003 0227", 
    "lon": "-84.156724", 
    "claimed": false, 
    "street": "CYPRESS DR, HARRISON TOWNSHIP", 
    "lot": true, 
    "lat": "39.828250"
  }, 
  {
    "parcelid": "H33300809 0043", 
    "lon": "-84.283763", 
    "claimed": false, 
    "street": "157 DREXEL AVE, TROTWOOD", 
    "lot": false, 
    "lat": "39.748710"
  }, 
  {
    "parcelid": "E21 17205A0105", 
    "lon": "-84.189668", 
    "claimed": false, 
    "street": "KEENAN AVE, HARRISON TOWNSHIP", 
    "lot": true, 
    "lat": "39.806621"
  }, 
  {
    "parcelid": "H33 01220 0041", 
    "lon": "-84.276061", 
    "claimed": false, 
    "street": "5147 RUCKS RD, TROTWOOD", 
    "lot": false, 
    "lat": "39.766475"
  }, 
  {
    "parcelid": "E20 24201 0005", 
    "lon": "-84.251480", 
    "claimed": false, 
    "street": "3842 OTIS DR, HARRISON TOWNSHIP", 
    "lot": false, 
    "lat": "39.803230"
  }, 
  {
    "parcelid": "G27 18215 0004", 
    "lon": "-84.269223", 
    "claimed": false, 
    "street": "1018 MAIDEN PL, JEFFERSON TOWNSHIP", 
    "lot": false, 
    "lat": "39.730884"
  }, 
  {
    "parcelid": "H33 01202 0003", 
    "lon": "-84.270409", 
    "claimed": false, 
    "street": "4913 MARBURN AVE, TROTWOOD", 
    "lot": true, 
    "lat": "39.765623"
  }, 
  {
    "parcelid": "E20 17102A0083", 
    "lon": "-84.247099", 
    "claimed": false, 
    "street": "3553 DETROIT AVE, HARRISON TOWNSHIP", 
    "lot": false, 
    "lat": "39.802064"
  }, 
  {
    "parcelid": "G27 18309 0243", 
    "lon": "-84.300348", 
    "claimed": false, 
    "street": "224 BRICKER AVE, JEFFERSON TOWNSHIP", 
    "lot": true, 
    "lat": "39.742530"
  }, 
  {
    "parcelid": "B02 00617 0071", 
    "lon": "-84.205655", 
    "claimed": false, 
    "street": "419 STONEQUARRY RD, VANDALIA", 
    "lot": false, 
    "lat": "39.872453"
  }, 
  {
    "parcelid": "I39101411 0024", 
    "lon": "-84.112298", 
    "claimed": false, 
    "street": "MAYAPPLE AVE, RIVERSIDE", 
    "lot": true, 
    "lat": "39.746123"
  }, 
  {
    "parcelid": "J44204113 0072", 
    "lon": "-84.252520", 
    "claimed": false, 
    "street": "LYLEBURN RD, MORAINE", 
    "lot": true, 
    "lat": "39.703383"
  }, 
  {
    "parcelid": "M58 00226 0002", 
    "lon": "-84.336339", 
    "claimed": false, 
    "street": "SPRINGHOUSE DR, UNION", 
    "lot": true, 
    "lat": "39.905554"
  }, 
  {
    "parcelid": "H33 01316 0018", 
    "lon": "-84.291397", 
    "claimed": false, 
    "street": "926 OLIVE RD, TROTWOOD", 
    "lot": false, 
    "lat": "39.760202"
  }, 
  {
    "parcelid": "H33 00818 0033", 
    "lon": "-84.295410", 
    "claimed": false, 
    "street": "6171 FORESTDALE AVE, TROTWOOD", 
    "lot": false, 
    "lat": "39.759517"
  }, 
  {
    "parcelid": "G27 01701 0010", 
    "lon": "-84.259774", 
    "claimed": false, 
    "street": "4340 DAYTON LIBERTY RD, JEFFERSON TOWNSHIP", 
    "lot": true, 
    "lat": "39.731826"
  }, 
  {
    "parcelid": "H33 01208 0018", 
    "lon": "-84.267971", 
    "claimed": false, 
    "street": "1409 HONEYBEE DR, TROTWOOD", 
    "lot": false, 
    "lat": "39.767170"
  }, 
  {
    "parcelid": "G27 18318 0016", 
    "lon": "-84.283855", 
    "claimed": false, 
    "street": "GLEN MEADOW DR, JEFFERSON TOWNSHIP", 
    "lot": true, 
    "lat": "39.730467"
  }, 
  {
    "parcelid": "K48 00104 0005", 
    "lon": "-84.254744", 
    "claimed": false, 
    "street": "15 W PEASE AVE, WEST CARROLLTON", 
    "lot": false, 
    "lat": "39.673486"
  }, 
  {
    "parcelid": "H33300901 0036", 
    "lon": "-84.268807", 
    "claimed": false, 
    "street": "335 HOLLENCAMP AVE, TROTWOOD", 
    "lot": true, 
    "lat": "39.752764"
  }, 
  {
    "parcelid": "H33301101 0045", 
    "lon": "-84.257389", 
    "claimed": false, 
    "street": "4400 MARLOWE ST, TROTWOOD", 
    "lot": false, 
    "lat": "39.811098"
  }, 
  {
    "parcelid": "E20 17102B0124", 
    "lon": "-84.251538", 
    "claimed": false, 
    "street": "3737 PITTSBURG AVE, HARRISON TOWNSHIP", 
    "lot": true, 
    "lat": "39.801076"
  }, 
  {
    "parcelid": "H33 00817 0157", 
    "lon": "-84.295079", 
    "claimed": false, 
    "street": "6217 CARMIN AVE, TROTWOOD", 
    "lot": false, 
    "lat": "39.749296"
  }, 
  {
    "parcelid": "H33 01208 0015", 
    "lon": "-84.267422", 
    "claimed": false, 
    "street": "1458 HONEYBEE DR, TROTWOOD", 
    "lot": true, 
    "lat": "39.767925"
  }, 
  {
    "parcelid": "H33301009 0089", 
    "lon": "-84.266767", 
    "claimed": false, 
    "street": "3598 NEVADA AVE, TROTWOOD", 
    "lot": false, 
    "lat": "39.799228"
  }, 
  {
    "parcelid": "G29 18204A0063", 
    "lon": "-84.284363", 
    "claimed": false, 
    "street": "29 DAVENPORT AVE, JEFFERSON TOWNSHIP", 
    "lot": true, 
    "lat": "39.745416"
  }, 
  {
    "parcelid": "H33 01208 0036", 
    "lon": "-84.269462", 
    "claimed": false, 
    "street": "4860 PORTERFIELD DR, TROTWOOD", 
    "lot": false, 
    "lat": "39.767619"
  }, 
  {
    "parcelid": "E20 17101 0109", 
    "lon": "-84.249345", 
    "claimed": false, 
    "street": "2417 WHEELER AVE, HARRISON TOWNSHIP", 
    "lot": true, 
    "lat": "39.791247"
  }, 
  {
    "parcelid": "P70 01412 0043", 
    "lon": "-84.117484", 
    "claimed": false, 
    "street": "5470 BARNARD DR, HUBER HEIGHTS", 
    "lot": false, 
    "lat": "39.835669"
  }, 
  {
    "parcelid": "E21 19003 0493", 
    "lon": "-84.160159", 
    "claimed": false, 
    "street": "EDGEWATER DR, HARRISON TOWNSHIP", 
    "lot": true, 
    "lat": "39.829356"
  }, 
  {
    "parcelid": "K48 00109 0058", 
    "lon": "-84.252835", 
    "claimed": false, 
    "street": "GRIMES ST, WEST CARROLLTON", 
    "lot": true, 
    "lat": "39.668282"
  }, 
  {
    "parcelid": "G27 18306 0056", 
    "lon": "-84.306340", 
    "claimed": false, 
    "street": "PAIGE                      AVE, JEFFERSON TOWNSHIP", 
    "lot": true, 
    "lat": "39.743471"
  }, 
  {
    "parcelid": "G27 18301 0094", 
    "lon": "-84.322725", 
    "claimed": false, 
    "street": "7725 LONGBOURNE ST, JEFFERSON TOWNSHIP", 
    "lot": false, 
    "lat": "39.721555"
  }, 
  {
    "parcelid": "H33300901 0104", 
    "lon": "-84.271231", 
    "claimed": false, 
    "street": "5217 LOME AVE, TROTWOOD", 
    "lot": true, 
    "lat": "39.752576"
  }, 
  {
    "parcelid": "E20 17101A0155", 
    "lon": "-84.250540", 
    "claimed": false, 
    "street": "2435 HANCOCK AVE, HARRISON TOWNSHIP", 
    "lot": false, 
    "lat": "39.791844"
  }, 
  {
    "parcelid": "E20 17714 0011", 
    "lon": "-84.232976", 
    "claimed": false, 
    "street": "243 HORNWOOD DR, HARRISON TOWNSHIP", 
    "lot": true, 
    "lat": "39.809663"
  }, 
  {
    "parcelid": "H33300902 0021", 
    "lon": "-84.271016", 
    "claimed": false, 
    "street": "PATTON AVE, TROTWOOD", 
    "lot": true, 
    "lat": "39.749667"
  }, 
  {
    "parcelid": "G29 18202A0161", 
    "lon": "-84.272925", 
    "claimed": false, 
    "street": "HANOVER AVE, JEFFERSON TOWNSHIP", 
    "lot": true, 
    "lat": "39.739608"
  }, 
  {
    "parcelid": "M58 00116 0006", 
    "lon": "-84.335483", 
    "claimed": false, 
    "street": "141 SPRINGHOUSE DR, UNION", 
    "lot": true, 
    "lat": "39.900978"
  }, 
  {
    "parcelid": "G29 18201 0164", 
    "lon": "-84.275981", 
    "claimed": false, 
    "street": "165 OBERLIN AVE, JEFFERSON TOWNSHIP", 
    "lot": false, 
    "lat": "39.743004"
  }, 
  {
    "parcelid": "H33300902 0043", 
    "lon": "-84.270381", 
    "claimed": false, 
    "street": "128 PATTON AVE, TROTWOOD", 
    "lot": true, 
    "lat": "39.750436"
  }, 
  {
    "parcelid": "M58 00117 0023", 
    "lon": "-84.333365", 
    "claimed": false, 
    "street": "IRONGATE DR, UNION", 
    "lot": true, 
    "lat": "39.898874"
  }, 
  {
    "parcelid": "E21 19003 0477", 
    "lon": "-84.159191", 
    "claimed": false, 
    "street": "EARLWOOD DR, HARRISON TOWNSHIP", 
    "lot": true, 
    "lat": "39.827721"
  }, 
  {
    "parcelid": "E21 17204 0083", 
    "lon": "-84.194961", 
    "claimed": false, 
    "street": "2105 KOEHLER AVE, HARRISON TOWNSHIP", 
    "lot": false, 
    "lat": "39.809349"
  }, 
  {
    "parcelid": "E21 17207A0027", 
    "lon": "-84.181024", 
    "claimed": false, 
    "street": "5002 WIRE DR, HARRISON TOWNSHIP", 
    "lot": false, 
    "lat": "39.811624"
  }, 
  {
    "parcelid": "K50 18421 0018", 
    "lon": "-84.290649", 
    "claimed": false, 
    "street": "6007 THIRD AVE, MIAMI TOWNSHIP", 
    "lot": false, 
    "lat": "39.592210"
  }, 
  {
    "parcelid": "H33 01223 0007", 
    "lon": "-84.280223", 
    "claimed": false, 
    "street": "5282 OSCEOLA DR, TROTWOOD", 
    "lot": false, 
    "lat": "39.765176"
  }, 
  {
    "parcelid": "H33 01709 0003", 
    "lon": "-84.326761", 
    "claimed": false, 
    "street": "COURTNEY LN, TROTWOOD", 
    "lot": true, 
    "lat": "39.829744"
  }, 
  {
    "parcelid": "E20 17101A0144", 
    "lon": "-84.250547", 
    "claimed": false, 
    "street": "2525 HANCOCK AVE, HARRISON TOWNSHIP", 
    "lot": true, 
    "lat": "39.793319"
  }, 
  {
    "parcelid": "K48 00113 0023", 
    "lon": "-84.261188", 
    "claimed": false, 
    "street": "28 WEIR ST, WEST CARROLLTON", 
    "lot": false, 
    "lat": "39.668798"
  }, 
  {
    "parcelid": "G29 18205 0011", 
    "lon": "-84.292796", 
    "claimed": false, 
    "street": "BRONSON ST, JEFFERSON TOWNSHIP", 
    "lot": true, 
    "lat": "39.743190"
  }, 
  {
    "parcelid": "E21 19003 0470", 
    "lon": "-84.159204", 
    "claimed": false, 
    "street": "PINE TREE, HARRISON TOWNSHIP", 
    "lot": true, 
    "lat": "39.827494"
  }, 
  {
    "parcelid": "I39 00118 0049", 
    "lon": "-84.133963", 
    "claimed": false, 
    "street": "4427 CLAREWOOD AVE, RIVERSIDE", 
    "lot": false, 
    "lat": "39.776525"
  }, 
  {
    "parcelid": "E21 19003 0190", 
    "lon": "-84.156871", 
    "claimed": false, 
    "street": "GARDEN RD, HARRISON TOWNSHIP", 
    "lot": true, 
    "lat": "39.828848"
  }, 
  {
    "parcelid": "E20 17101A0022", 
    "lon": "-84.252950", 
    "claimed": false, 
    "street": "2563 GRANT AVE, HARRISON TOWNSHIP", 
    "lot": false, 
    "lat": "39.794467"
  }, 
  {
    "parcelid": "H33300816 0044", 
    "lon": "-84.291811", 
    "claimed": false, 
    "street": "42 OLIVE RD, TROTWOOD", 
    "lot": true, 
    "lat": "39.747058"
  }, 
  {
    "parcelid": "I39 00111 0012", 
    "lon": "-84.129698", 
    "claimed": false, 
    "street": "4804 4806 NORTHCLIFF DR, RIVERSIDE", 
    "lot": true, 
    "lat": "39.780145"
  }, 
  {
    "parcelid": "H33300822 0058", 
    "lon": "-84.279175", 
    "claimed": false, 
    "street": "125 POMEROY AVE, TROTWOOD", 
    "lot": true, 
    "lat": "39.748295"
  }, 
  {
    "parcelid": "H33 00302 0005", 
    "lon": "-84.308467", 
    "claimed": false, 
    "street": "7 S SUNRISE AVE, TROTWOOD", 
    "lot": false, 
    "lat": "39.796578"
  }, 
  {
    "parcelid": "K45 02505 0011", 
    "lon": "-84.301244", 
    "claimed": false, 
    "street": "ZECK RD, MIAMI TOWNSHIP", 
    "lot": true, 
    "lat": "39.624085"
  }, 
  {
    "parcelid": "H33 00817 0058", 
    "lon": "-84.295073", 
    "claimed": false, 
    "street": "6217 MELVIN AVE, TROTWOOD", 
    "lot": false, 
    "lat": "39.747619"
  }, 
  {
    "parcelid": "K45 02614A0043", 
    "lon": "-84.293514", 
    "claimed": false, 
    "street": "9232 S RIVER RD, MIAMI TOWNSHIP", 
    "lot": false, 
    "lat": "39.618148"
  }, 
  {
    "parcelid": "E21 19003 0204", 
    "lon": "-84.157831", 
    "claimed": false, 
    "street": "EDGEWATER DR, HARRISON TOWNSHIP", 
    "lot": true, 
    "lat": "39.830207"
  }, 
  {
    "parcelid": "K46 00332 0070", 
    "lon": "-84.278363", 
    "claimed": false, 
    "street": "S NINTH ST, MIAMISBURG", 
    "lot": true, 
    "lat": "39.634358"
  }, 
  {
    "parcelid": "H33 01213 0024", 
    "lon": "-84.270679", 
    "claimed": false, 
    "street": "4920 PORTERFIELD DR, TROTWOOD", 
    "lot": false, 
    "lat": "39.767437"
  }, 
  {
    "parcelid": "G29 18201 0026", 
    "lon": "-84.273699", 
    "claimed": false, 
    "street": "19 HANOVER AVE, JEFFERSON TOWNSHIP", 
    "lot": false, 
    "lat": "39.746019"
  }, 
  {
    "parcelid": "M60 16323 0041", 
    "lon": "-84.337137", 
    "claimed": false, 
    "street": "STEINEMAN ST, CLAYTON", 
    "lot": true, 
    "lat": "39.872346"
  }, 
  {
    "parcelid": "H33301011 0002", 
    "lon": "-84.267814", 
    "claimed": false, 
    "street": "4695 CURUNDU AVE, TROTWOOD", 
    "lot": false, 
    "lat": "39.801528"
  }, 
  {
    "parcelid": "H33300821 0083", 
    "lon": "-84.280880", 
    "claimed": false, 
    "street": "168 MORGAN AVE, TROTWOOD", 
    "lot": false, 
    "lat": "39.748851"
  }, 
  {
    "parcelid": "H33 00419 0013", 
    "lon": "-84.302996", 
    "claimed": false, 
    "street": "6528 WOLF CREEK PIKE, TROTWOOD", 
    "lot": false, 
    "lat": "39.795756"
  }, 
  {
    "parcelid": "G29 18204 0051", 
    "lon": "-84.284349", 
    "claimed": false, 
    "street": "DAVENPORT                  AVE, JEFFERSON TOWNSHIP", 
    "lot": true, 
    "lat": "39.744827"
  }, 
  {
    "parcelid": "G29 18205 0016", 
    "lon": "-84.291729", 
    "claimed": false, 
    "street": "BRONSON ST, JEFFERSON TOWNSHIP", 
    "lot": true, 
    "lat": "39.743206"
  }, 
  {
    "parcelid": "P70 00202 1196", 
    "lon": "-84.169845", 
    "claimed": false, 
    "street": "APACHE ST, HUBER HEIGHTS", 
    "lot": true, 
    "lat": "39.848972"
  }, 
  {
    "parcelid": "G27 01609 0025", 
    "lon": "-84.322078", 
    "claimed": false, 
    "street": "7671 DAYTON LIBERTY RD, JEFFERSON TOWNSHIP", 
    "lot": false, 
    "lat": "39.720732"
  }, 
  {
    "parcelid": "E21 17209 0126", 
    "lon": "-84.185578", 
    "claimed": false, 
    "street": "4704 WOODLAND HILLS BLVD, HARRISON TOWNSHIP", 
    "lot": false, 
    "lat": "39.808202"
  }, 
  {
    "parcelid": "P70 00202 1197", 
    "lon": "-84.169836", 
    "claimed": false, 
    "street": "APACHE ST, HUBER HEIGHTS", 
    "lot": true, 
    "lat": "39.849192"
  }, 
  {
    "parcelid": "H33 00817 0093", 
    "lon": "-84.295017", 
    "claimed": false, 
    "street": "6216 LORIMER ST, TROTWOOD", 
    "lot": false, 
    "lat": "39.748007"
  }, 
  {
    "parcelid": "H33 00417 0031", 
    "lon": "-84.306474", 
    "claimed": false, 
    "street": "RIO GRANDE DR, TROTWOOD", 
    "lot": true, 
    "lat": "39.796559"
  }, 
  {
    "parcelid": "L55 02705 0010", 
    "lon": "-84.450871", 
    "claimed": false, 
    "street": "BROOKVILLE PYRMONT RD, PERRY TOWNSHIP", 
    "lot": true, 
    "lat": "39.817929"
  }, 
  {
    "parcelid": "H33300816 0049", 
    "lon": "-84.291445", 
    "claimed": false, 
    "street": "6035 W 3RD ST, TROTWOOD", 
    "lot": false, 
    "lat": "39.746777"
  }, 
  {
    "parcelid": "H33300904 0031", 
    "lon": "-84.255243", 
    "claimed": false, 
    "street": "4126 FREUDENBERGER AVE, TROTWOOD", 
    "lot": true, 
    "lat": "39.768159"
  }, 
  {
    "parcelid": "F24 00101 0030", 
    "lon": "-84.387463", 
    "claimed": false, 
    "street": "FRANKLIN ST, NEW LEBANON", 
    "lot": true, 
    "lat": "39.744360"
  }, 
  {
    "parcelid": "G27 18309 0235", 
    "lon": "-84.303733", 
    "claimed": false, 
    "street": "KNOX AVE, JEFFERSON TOWNSHIP", 
    "lot": true, 
    "lat": "39.742655"
  }, 
  {
    "parcelid": "H33 01710 0009", 
    "lon": "-84.327204", 
    "claimed": false, 
    "street": "5798 COURTNEY LN, TROTWOOD", 
    "lot": true, 
    "lat": "39.829952"
  }, 
  {
    "parcelid": "G29 18205 0135", 
    "lon": "-84.291991", 
    "claimed": false, 
    "street": "24 WEST END ST, JEFFERSON TOWNSHIP", 
    "lot": false, 
    "lat": "39.745758"
  }, 
  {
    "parcelid": "H33300813 0078", 
    "lon": "-84.289356", 
    "claimed": false, 
    "street": "152 DEVONSHIRE AVE, TROTWOOD", 
    "lot": true, 
    "lat": "39.748646"
  }, 
  {
    "parcelid": "E21 17405 0066", 
    "lon": "-84.194901", 
    "claimed": false, 
    "street": "2017 HILLSDALE AVE, HARRISON TOWNSHIP", 
    "lot": false, 
    "lat": "39.804965"
  }, 
  {
    "parcelid": "E20 17101B0101", 
    "lon": "-84.251004", 
    "claimed": false, 
    "street": "2633 FALMOUTH AVE, HARRISON TOWNSHIP", 
    "lot": true, 
    "lat": "39.795339"
  }, 
  {
    "parcelid": "H33 01119 0026", 
    "lon": "-84.265469", 
    "claimed": false, 
    "street": "FREUDENBERGER AVE, TROTWOOD", 
    "lot": true, 
    "lat": "39.766895"
  }, 
  {
    "parcelid": "H33300905 0081", 
    "lon": "-84.262259", 
    "claimed": false, 
    "street": "GARDENDALE AVE, TROTWOOD", 
    "lot": true, 
    "lat": "39.767637"
  }, 
  {
    "parcelid": "G27 18312 0008", 
    "lon": "-84.303781", 
    "claimed": false, 
    "street": "6736 DAYTON FARMERSVILLE RD, JEFFERSON TOWNSHIP", 
    "lot": false, 
    "lat": "39.701925"
  }, 
  {
    "parcelid": "H33300912 0136", 
    "lon": "-84.263872", 
    "claimed": false, 
    "street": "4390 BRUNSWICK AVE, TROTWOOD", 
    "lot": false, 
    "lat": "39.804958"
  }, 
  {
    "parcelid": "M58 00117 0006", 
    "lon": "-84.334354", 
    "claimed": false, 
    "street": "IRONGATE DR, UNION", 
    "lot": true, 
    "lat": "39.899251"
  }, 
  {
    "parcelid": "E21 19003 0385", 
    "lon": "-84.157117", 
    "claimed": false, 
    "street": "CRAIGWOOD DR, HARRISON TOWNSHIP", 
    "lot": true, 
    "lat": "39.826817"
  }, 
  {
    "parcelid": "G27 24511 0042", 
    "lon": "-84.272163", 
    "claimed": false, 
    "street": "1307 BLAIRWOOD AVE, JEFFERSON TOWNSHIP", 
    "lot": false, 
    "lat": "39.727461"
  }, 
  {
    "parcelid": "G29 18201 0029", 
    "lon": "-84.273692", 
    "claimed": false, 
    "street": "HANOVER AVE, JEFFERSON TOWNSHIP", 
    "lot": true, 
    "lat": "39.745689"
  }, 
  {
    "parcelid": "E21 19003 0323", 
    "lon": "-84.157074", 
    "claimed": false, 
    "street": "ELKWOOD DR, HARRISON TOWNSHIP", 
    "lot": true, 
    "lat": "39.827167"
  }, 
  {
    "parcelid": "G27 18309 0236", 
    "lon": "-84.303735", 
    "claimed": false, 
    "street": "216 KNOX AVE, JEFFERSON TOWNSHIP", 
    "lot": false, 
    "lat": "39.742791"
  }, 
  {
    "parcelid": "H33 01712 0003", 
    "lon": "-84.316532", 
    "claimed": false, 
    "street": "POST TOWN RD, TROTWOOD", 
    "lot": true, 
    "lat": "39.784055"
  }, 
  {
    "parcelid": "H33300813 0003", 
    "lon": "-84.287537", 
    "claimed": false, 
    "street": "153 LENSDALE AVE, TROTWOOD", 
    "lot": true, 
    "lat": "39.748665"
  }, 
  {
    "parcelid": "G27 18214 0030", 
    "lon": "-84.273052", 
    "claimed": false, 
    "street": "5097 FORTMAN DR, JEFFERSON TOWNSHIP", 
    "lot": true, 
    "lat": "39.721969"
  }, 
  {
    "parcelid": "H33300905 0006", 
    "lon": "-84.258728", 
    "claimed": false, 
    "street": "FREUDENBERGER AVE, TROTWOOD", 
    "lot": true, 
    "lat": "39.768653"
  }, 
  {
    "parcelid": "H33 02310 0056", 
    "lon": "-84.300072", 
    "claimed": false, 
    "street": "98 HOLLER RD, TROTWOOD", 
    "lot": false, 
    "lat": "39.747666"
  }, 
  {
    "parcelid": "I39 00602 0014", 
    "lon": "-84.136884", 
    "claimed": false, 
    "street": "2612 BRANDT PIKE, RIVERSIDE", 
    "lot": false, 
    "lat": "39.809155"
  }, 
  {
    "parcelid": "H33 02102 0117", 
    "lon": "-84.289838", 
    "claimed": false, 
    "street": "5625 SALEM AVE, TROTWOOD", 
    "lot": true, 
    "lat": "39.827561"
  }, 
  {
    "parcelid": "E21 17306 0126", 
    "lon": "-84.183423", 
    "claimed": false, 
    "street": "2538 ONEIDA DR, HARRISON TOWNSHIP", 
    "lot": false, 
    "lat": "39.795981"
  }, 
  {
    "parcelid": "K48 01013 0007", 
    "lon": "-84.250974", 
    "claimed": false, 
    "street": "615 S ELM ST, WEST CARROLLTON", 
    "lot": true, 
    "lat": "39.664734"
  }, 
  {
    "parcelid": "H33 00207 0005", 
    "lon": "-84.300347", 
    "claimed": false, 
    "street": "613 MAPLESIDE DR, TROTWOOD", 
    "lot": false, 
    "lat": "39.803717"
  }, 
  {
    "parcelid": "E21 17304 0076", 
    "lon": "-84.189734", 
    "claimed": false, 
    "street": "NEVA DR, HARRISON TOWNSHIP", 
    "lot": true, 
    "lat": "39.793882"
  }, 
  {
    "parcelid": "I39 00712 0076", 
    "lon": "-84.141566", 
    "claimed": false, 
    "street": "409 ROHRER BLVD, RIVERSIDE", 
    "lot": false, 
    "lat": "39.795974"
  }, 
  {
    "parcelid": "H33300905 0108", 
    "lon": "-84.258510", 
    "claimed": false, 
    "street": "4214 GARDENDALE AVE, TROTWOOD", 
    "lot": false, 
    "lat": "39.767147"
  }, 
  {
    "parcelid": "E20 24209 0033", 
    "lon": "-84.249780", 
    "claimed": false, 
    "street": "3764 HANEY RD, HARRISON TOWNSHIP", 
    "lot": true, 
    "lat": "39.805120"
  }, 
  {
    "parcelid": "H33 01309 0011", 
    "lon": "-84.282254", 
    "claimed": false, 
    "street": "1479 SWINGER DR, TROTWOOD", 
    "lot": true, 
    "lat": "39.768484"
  }, 
  {
    "parcelid": "D13 00317 0016", 
    "lon": "-84.352213", 
    "claimed": false, 
    "street": "219 ANGELA DR, GERMANTOWN", 
    "lot": false, 
    "lat": "39.628516"
  }, 
  {
    "parcelid": "G29 18201 0046", 
    "lon": "-84.273654", 
    "claimed": false, 
    "street": "141 HANOVER AVE, JEFFERSON TOWNSHIP", 
    "lot": true, 
    "lat": "39.743689"
  }, 
  {
    "parcelid": "E21 17601 0026", 
    "lon": "-84.193971", 
    "claimed": false, 
    "street": "2200 CADIE AVE, HARRISON TOWNSHIP", 
    "lot": false, 
    "lat": "39.828162"
  }, 
  {
    "parcelid": "H33 01201 0011", 
    "lon": "-84.269128", 
    "claimed": false, 
    "street": "4841 MARBURN AVE, TROTWOOD", 
    "lot": true, 
    "lat": "39.765625"
  }, 
  {
    "parcelid": "H33301022 0009", 
    "lon": "-84.256910", 
    "claimed": false, 
    "street": "4245 MOLANE ST, TROTWOOD", 
    "lot": false, 
    "lat": "39.808823"
  }, 
  {
    "parcelid": "H33 00417 0024", 
    "lon": "-84.303904", 
    "claimed": false, 
    "street": "6607 WOLF CREEK PIKE, TROTWOOD", 
    "lot": false, 
    "lat": "39.797002"
  }, 
  {
    "parcelid": "E21 17602 0106", 
    "lon": "-84.193770", 
    "claimed": false, 
    "street": "2204 GIPSY DR, HARRISON TOWNSHIP", 
    "lot": false, 
    "lat": "39.825607"
  }, 
  {
    "parcelid": "G29 18201 0193", 
    "lon": "-84.276503", 
    "claimed": false, 
    "street": "160 HOLLAND AVE, JEFFERSON TOWNSHIP", 
    "lot": true, 
    "lat": "39.742888"
  }, 
  {
    "parcelid": "K46 00614 0081", 
    "lon": "-84.274949", 
    "claimed": false, 
    "street": "MIAMISBURG SPRINGBORO RD, MIAMISBURG", 
    "lot": true, 
    "lat": "39.627790"
  }, 
  {
    "parcelid": "G27 18306 0029", 
    "lon": "-84.306337", 
    "claimed": false, 
    "street": "15 PAIGE AVE, JEFFERSON TOWNSHIP", 
    "lot": true, 
    "lat": "39.745311"
  }, 
  {
    "parcelid": "G27 18208 0002", 
    "lon": "-84.302443", 
    "claimed": false, 
    "street": "6626 W 3RD ST, JEFFERSON TOWNSHIP", 
    "lot": false, 
    "lat": "39.745980"
  }, 
  {
    "parcelid": "H33 00903 0023", 
    "lon": "-84.268664", 
    "claimed": false, 
    "street": "4796 WOLF CREEK PIKE, TROTWOOD", 
    "lot": false, 
    "lat": "39.780148"
  }, 
  {
    "parcelid": "H33 00107 0001", 
    "lon": "-84.287992", 
    "claimed": false, 
    "street": "338 NORFOLK AVE, TROTWOOD", 
    "lot": true, 
    "lat": "39.752635"
  }, 
  {
    "parcelid": "G29 18204A0036", 
    "lon": "-84.284715", 
    "claimed": false, 
    "street": "36 LANSDOWNE AVE, JEFFERSON TOWNSHIP", 
    "lot": false, 
    "lat": "39.745261"
  }, 
  {
    "parcelid": "O67 03806 0064", 
    "lon": "-84.142612", 
    "claimed": false, 
    "street": "SETTLEMENT HOUSE RD, WASHINGTON TOWNSHIP", 
    "lot": true, 
    "lat": "39.593846"
  }, 
  {
    "parcelid": "E21 19003 0363", 
    "lon": "-84.158653", 
    "claimed": false, 
    "street": "CRAIGWOOD DR, HARRISON TOWNSHIP", 
    "lot": true, 
    "lat": "39.828828"
  }, 
  {
    "parcelid": "M58 00117 0021", 
    "lon": "-84.333043", 
    "claimed": false, 
    "street": "IRONGATE DR, UNION", 
    "lot": true, 
    "lat": "39.899352"
  }, 
  {
    "parcelid": "G27 01611 0086", 
    "lon": "-84.272149", 
    "claimed": false, 
    "street": "5070 GERMANTOWN PIKE, JEFFERSON TOWNSHIP", 
    "lot": false, 
    "lat": "39.717477"
  }, 
  {
    "parcelid": "H33 01211 0011", 
    "lon": "-84.268817", 
    "claimed": false, 
    "street": "1559 HONEYBEE DR, TROTWOOD", 
    "lot": false, 
    "lat": "39.769445"
  }, 
  {
    "parcelid": "H33301022 0018", 
    "lon": "-84.256746", 
    "claimed": false, 
    "street": "4301 WESTMORE CT, TROTWOOD", 
    "lot": false, 
    "lat": "39.809810"
  }, 
  {
    "parcelid": "E21 19003 0183", 
    "lon": "-84.156428", 
    "claimed": false, 
    "street": "DEEPWOOD DR, HARRISON TOWNSHIP", 
    "lot": true, 
    "lat": "39.828268"
  }, 
  {
    "parcelid": "M58 00103 0047", 
    "lon": "-84.307646", 
    "claimed": true, 
    "street": "106 W MARTINDALE RD, UNION", 
    "lot": false, 
    "lat": "39.898065"
  }, 
  {
    "parcelid": "H33302101 0019", 
    "lon": "-84.259630", 
    "claimed": false, 
    "street": "BASORE RD, TROTWOOD", 
    "lot": true, 
    "lat": "39.832667"
  }, 
  {
    "parcelid": "H33300813 0029", 
    "lon": "-84.288153", 
    "claimed": false, 
    "street": "222 NORFOLK AVE, TROTWOOD", 
    "lot": true, 
    "lat": "39.749647"
  }, 
  {
    "parcelid": "H33300821 0028", 
    "lon": "-84.282007", 
    "claimed": false, 
    "street": "160 MILLER AVE, TROTWOOD", 
    "lot": true, 
    "lat": "39.748728"
  }, 
  {
    "parcelid": "E20 17105A0052", 
    "lon": "-84.250137", 
    "claimed": false, 
    "street": "2210 ESMERALDA AVE, HARRISON TOWNSHIP", 
    "lot": false, 
    "lat": "39.789199"
  }, 
  {
    "parcelid": "K46 00106 0035", 
    "lon": "-84.290537", 
    "claimed": false, 
    "street": "340 N RIVERVIEW RD, MIAMISBURG", 
    "lot": false, 
    "lat": "39.648048"
  }, 
  {
    "parcelid": "E20 17503 0119", 
    "lon": "-84.237510", 
    "claimed": false, 
    "street": "50 WINNET DR, HARRISON TOWNSHIP", 
    "lot": false, 
    "lat": "39.823092"
  }, 
  {
    "parcelid": "E21 19003 0370", 
    "lon": "-84.158156", 
    "claimed": false, 
    "street": "CRAIGWOOD DR, HARRISON TOWNSHIP", 
    "lot": true, 
    "lat": "39.828177"
  }, 
  {
    "parcelid": "I39 00609 0024", 
    "lon": "-84.138568", 
    "claimed": false, 
    "street": "647 HOMECREST AVE, RIVERSIDE", 
    "lot": false, 
    "lat": "39.805045"
  }, 
  {
    "parcelid": "N64 00809 0204", 
    "lon": "-84.155759", 
    "claimed": false, 
    "street": "2905 CALIFORNIA AVE, KETTERING", 
    "lot": true, 
    "lat": "39.705015"
  }, 
  {
    "parcelid": "H33300811 0003", 
    "lon": "-84.285030", 
    "claimed": false, 
    "street": "155 N LANSDOWNE AVE, TROTWOOD", 
    "lot": true, 
    "lat": "39.748694"
  }, 
  {
    "parcelid": "H33 01222 0003", 
    "lon": "-84.277097", 
    "claimed": false, 
    "street": "5180 OSCEOLA DR, TROTWOOD", 
    "lot": false, 
    "lat": "39.765184"
  }, 
  {
    "parcelid": "H33 50017 0024", 
    "lon": "-84.289036", 
    "claimed": false, 
    "street": "5533 HUMMOCK RD, TROTWOOD", 
    "lot": false, 
    "lat": "39.827087"
  }, 
  {
    "parcelid": "H33300813 0031", 
    "lon": "-84.288141", 
    "claimed": false, 
    "street": "208 NORFOLK AVE, TROTWOOD", 
    "lot": false, 
    "lat": "39.749428"
  }, 
  {
    "parcelid": "G27 18306 0104", 
    "lon": "-84.307285", 
    "claimed": false, 
    "street": "JONQUIL                    ST, JEFFERSON TOWNSHIP", 
    "lot": true, 
    "lat": "39.743684"
  }, 
  {
    "parcelid": "G27 18307 0101", 
    "lon": "-84.307263", 
    "claimed": false, 
    "street": "JONQUIL ST, JEFFERSON TOWNSHIP", 
    "lot": true, 
    "lat": "39.742421"
  }, 
  {
    "parcelid": "H33300905 0064", 
    "lon": "-84.259058", 
    "claimed": false, 
    "street": "4225 GARDENDALE AVE, TROTWOOD", 
    "lot": true, 
    "lat": "39.767687"
  }, 
  {
    "parcelid": "N64 01103 0002", 
    "lon": "-84.128426", 
    "claimed": false, 
    "street": "3845 WOODMAN DR, KETTERING", 
    "lot": false, 
    "lat": "39.689645"
  }, 
  {
    "parcelid": "H33300813 0001", 
    "lon": "-84.287525", 
    "claimed": false, 
    "street": "LENSDALE AVE, TROTWOOD", 
    "lot": true, 
    "lat": "39.748446"
  }, 
  {
    "parcelid": "H33 02303 0043", 
    "lon": "-84.306527", 
    "claimed": false, 
    "street": "6750 LITTLE RICHMOND RD, TROTWOOD", 
    "lot": true, 
    "lat": "39.774837"
  }, 
  {
    "parcelid": "G27 01603 0107", 
    "lon": "-84.296041", 
    "claimed": false, 
    "street": "747 CALUMET LN, JEFFERSON TOWNSHIP", 
    "lot": false, 
    "lat": "39.734286"
  }, 
  {
    "parcelid": "H33 01712 0002", 
    "lon": "-84.316905", 
    "claimed": false, 
    "street": "POST TOWN RD, TROTWOOD", 
    "lot": true, 
    "lat": "39.784217"
  }, 
  {
    "parcelid": "H33 01201 0046", 
    "lon": "-84.268900", 
    "claimed": false, 
    "street": "4829 GARDENDALE AVE, TROTWOOD", 
    "lot": true, 
    "lat": "39.766452"
  }, 
  {
    "parcelid": "E20 17101A0095", 
    "lon": "-84.251761", 
    "claimed": false, 
    "street": "2523 FALMOUTH AVE, HARRISON TOWNSHIP", 
    "lot": true, 
    "lat": "39.792917"
  }, 
  {
    "parcelid": "E20 17007 0083", 
    "lon": "-84.219730", 
    "claimed": false, 
    "street": "WILTON AVE, HARRISON TOWNSHIP", 
    "lot": true, 
    "lat": "39.805305"
  }, 
  {
    "parcelid": "E21 17205 0034", 
    "lon": "-84.190239", 
    "claimed": false, 
    "street": "KOEHLER AVE, HARRISON TOWNSHIP", 
    "lot": true, 
    "lat": "39.809365"
  }, 
  {
    "parcelid": "E20 17507 0164", 
    "lon": "-84.227340", 
    "claimed": false, 
    "street": "LORETTA DR, HARRISON TOWNSHIP", 
    "lot": true, 
    "lat": "39.815179"
  }, 
  {
    "parcelid": "K46 00336 0019", 
    "lon": "-84.290976", 
    "claimed": false, 
    "street": "401 S MAIN ST, MIAMISBURG", 
    "lot": false, 
    "lat": "39.636266"
  }, 
  {
    "parcelid": "H33 00819 0029", 
    "lon": "-84.299380", 
    "claimed": false, 
    "street": "6351 MANTZ AVE, TROTWOOD", 
    "lot": false, 
    "lat": "39.757010"
  }, 
  {
    "parcelid": "G29 18201 0028", 
    "lon": "-84.273694", 
    "claimed": false, 
    "street": "23 HANOVER AVE, JEFFERSON TOWNSHIP", 
    "lot": true, 
    "lat": "39.745799"
  }, 
  {
    "parcelid": "E21 17307 0005", 
    "lon": "-84.183082", 
    "claimed": false, 
    "street": "NEVA DR, HARRISON TOWNSHIP", 
    "lot": true, 
    "lat": "39.797225"
  }, 
  {
    "parcelid": "H33300814 0007", 
    "lon": "-84.287646", 
    "claimed": false, 
    "street": "89 LENSDALE AVE, TROTWOOD", 
    "lot": true, 
    "lat": "39.747763"
  }, 
  {
    "parcelid": "J44120913 0172", 
    "lon": "-84.235559", 
    "claimed": false, 
    "street": "CLEARVIEW RD, MORAINE", 
    "lot": true, 
    "lat": "39.685048"
  }, 
  {
    "parcelid": "M57 00217 0002", 
    "lon": "-84.302806", 
    "claimed": false, 
    "street": "VALLEYVIEW DR, ENGLEWOOD", 
    "lot": true, 
    "lat": "39.884426"
  }, 
  {
    "parcelid": "G29 18201A0054", 
    "lon": "-84.272483", 
    "claimed": false, 
    "street": "133 COLGATE AVE, JEFFERSON TOWNSHIP", 
    "lot": true, 
    "lat": "39.743812"
  }, 
  {
    "parcelid": "H33300815 0008", 
    "lon": "-84.290074", 
    "claimed": false, 
    "street": "193 DEVONSHIRE AVE, TROTWOOD", 
    "lot": true, 
    "lat": "39.749185"
  }, 
  {
    "parcelid": "K45 02614A0030", 
    "lon": "-84.293247", 
    "claimed": false, 
    "street": "9158 S RIVER RD, MIAMI TOWNSHIP", 
    "lot": false, 
    "lat": "39.619210"
  }, 
  {
    "parcelid": "G27 01611 0007", 
    "lon": "-84.289676", 
    "claimed": false, 
    "street": "DAYTON LIBERTY RD, JEFFERSON TOWNSHIP", 
    "lot": true, 
    "lat": "39.729824"
  }, 
  {
    "parcelid": "G29 18202A0011", 
    "lon": "-84.268746", 
    "claimed": false, 
    "street": "241 LISCUM DR, JEFFERSON TOWNSHIP", 
    "lot": false, 
    "lat": "39.741630"
  }, 
  {
    "parcelid": "A01 00309 0184", 
    "lon": "-84.219525", 
    "claimed": false, 
    "street": "BRANTFORD RD, BUTLER TOWNSHIP", 
    "lot": true, 
    "lat": "39.853256"
  }, 
  {
    "parcelid": "E20 24111 0015", 
    "lon": "-84.247803", 
    "claimed": false, 
    "street": "3706 COLUMBO CT, HARRISON TOWNSHIP", 
    "lot": false, 
    "lat": "39.810185"
  }, 
  {
    "parcelid": "E20 24112 0014", 
    "lon": "-84.245120", 
    "claimed": false, 
    "street": "4053 KLEPINGER RD, HARRISON TOWNSHIP", 
    "lot": false, 
    "lat": "39.807938"
  }, 
  {
    "parcelid": "B02 00303 0003", 
    "lon": "-84.192342", 
    "claimed": false, 
    "street": "381 SCOTT AVE, VANDALIA", 
    "lot": false, 
    "lat": "39.887748"
  }, 
  {
    "parcelid": "P70 00202 0270", 
    "lon": "-84.171942", 
    "claimed": false, 
    "street": "KENNEBEC AVE, HUBER HEIGHTS", 
    "lot": true, 
    "lat": "39.846506"
  }, 
  {
    "parcelid": "H33 01106 0028", 
    "lon": "-84.308963", 
    "claimed": false, 
    "street": "UNION RD, TROTWOOD", 
    "lot": true, 
    "lat": "39.749874"
  }, 
  {
    "parcelid": "E21 19003 0196", 
    "lon": "-84.157305", 
    "claimed": false, 
    "street": "GARDEN RD, HARRISON TOWNSHIP", 
    "lot": true, 
    "lat": "39.829416"
  }, 
  {
    "parcelid": "H33 00314 0022", 
    "lon": "-84.318151", 
    "claimed": false, 
    "street": "24 CARMA DR, TROTWOOD", 
    "lot": false, 
    "lat": "39.798461"
  }, 
  {
    "parcelid": "E21 17306 0098", 
    "lon": "-84.184576", 
    "claimed": false, 
    "street": "2448 ONTARIO AVE, HARRISON TOWNSHIP", 
    "lot": false, 
    "lat": "39.794300"
  }, 
  {
    "parcelid": "H33300821 0064", 
    "lon": "-84.281423", 
    "claimed": false, 
    "street": "77 MORGAN AVE, TROTWOOD", 
    "lot": false, 
    "lat": "39.747608"
  }, 
  {
    "parcelid": "H33 01223 0069", 
    "lon": "-84.279288", 
    "claimed": false, 
    "street": "5222 RUCKS RD, TROTWOOD", 
    "lot": false, 
    "lat": "39.767449"
  }, 
  {
    "parcelid": "J44120914 0052", 
    "lon": "-84.238608", 
    "claimed": false, 
    "street": "BEECHGROVE RD, MORAINE", 
    "lot": true, 
    "lat": "39.685909"
  }, 
  {
    "parcelid": "H33301105 0018", 
    "lon": "-84.255105", 
    "claimed": false, 
    "street": "4232 WOLF RD, TROTWOOD", 
    "lot": false, 
    "lat": "39.808406"
  }, 
  {
    "parcelid": "G27 18309 0204", 
    "lon": "-84.303268", 
    "claimed": false, 
    "street": "245 ALBERS AVE, JEFFERSON TOWNSHIP", 
    "lot": false, 
    "lat": "39.742030"
  }, 
  {
    "parcelid": "G27 18311 0010", 
    "lon": "-84.306457", 
    "claimed": false, 
    "street": "1220 GLOVER AVE, JEFFERSON TOWNSHIP", 
    "lot": false, 
    "lat": "39.728284"
  }, 
  {
    "parcelid": "E21 17303A0003", 
    "lon": "-84.190598", 
    "claimed": true, 
    "street": "3233 LODGE AVE, HARRISON TOWNSHIP", 
    "lot": false, 
    "lat": "39.795029"
  }, 
  {
    "parcelid": "H33 01118 0003", 
    "lon": "-84.263737", 
    "claimed": false, 
    "street": "4558 GARDENDALE AVE, TROTWOOD", 
    "lot": false, 
    "lat": "39.767021"
  }, 
  {
    "parcelid": "H33300913 0222", 
    "lon": "-84.258823", 
    "claimed": false, 
    "street": "4100 ANNAPOLIS AVE, TROTWOOD", 
    "lot": false, 
    "lat": "39.803205"
  }, 
  {
    "parcelid": "H33 01201 0057", 
    "lon": "-84.266808", 
    "claimed": false, 
    "street": "1351 GUENTHER RD, TROTWOOD", 
    "lot": false, 
    "lat": "39.766479"
  }, 
  {
    "parcelid": "G29 18204A0001", 
    "lon": "-84.285599", 
    "claimed": false, 
    "street": "36 TAFT AVE, JEFFERSON TOWNSHIP", 
    "lot": false, 
    "lat": "39.745069"
  }, 
  {
    "parcelid": "H33301124 0026", 
    "lon": "-84.257338", 
    "claimed": false, 
    "street": "4148 MARLOWE ST, TROTWOOD", 
    "lot": false, 
    "lat": "39.807653"
  }, 
  {
    "parcelid": "H33 02301 0008", 
    "lon": "-84.266469", 
    "claimed": false, 
    "street": "1850 GUENTHER RD, TROTWOOD", 
    "lot": false, 
    "lat": "39.773627"
  }, 
  {
    "parcelid": "E20 17003 0091", 
    "lon": "-84.209044", 
    "claimed": false, 
    "street": "5 STAFFORD AVE, HARRISON TOWNSHIP", 
    "lot": false, 
    "lat": "39.802709"
  }, 
  {
    "parcelid": "E20 17104 0028", 
    "lon": "-84.245289", 
    "claimed": false, 
    "street": "2436 ULRICH AVE, HARRISON TOWNSHIP", 
    "lot": false, 
    "lat": "39.791776"
  }, 
  {
    "parcelid": "O67 21712 0006", 
    "lon": "-84.185302", 
    "claimed": false, 
    "street": "8510 GARNET DR, WASHINGTON TOWNSHIP", 
    "lot": true, 
    "lat": "39.620042"
  }, 
  {
    "parcelid": "J44 20903 0054", 
    "lon": "-84.225041", 
    "claimed": false, 
    "street": "DRYDEN RD, MORAINE", 
    "lot": false, 
    "lat": "39.705846"
  }, 
  {
    "parcelid": "H33 01304 0054", 
    "lon": "-84.277718", 
    "claimed": false, 
    "street": "5272 HOOVER AVE, TROTWOOD", 
    "lot": false, 
    "lat": "39.761052"
  }, 
  {
    "parcelid": "I39 01007 0012", 
    "lon": "-84.127590", 
    "claimed": true, 
    "street": "123 ELLINGTON RD, RIVERSIDE", 
    "lot": false, 
    "lat": "39.765691"
  }, 
  {
    "parcelid": "H33 02310 0006", 
    "lon": "-84.306241", 
    "claimed": false, 
    "street": "6772 HOOVER AVE, TROTWOOD", 
    "lot": false, 
    "lat": "39.759613"
  }, 
  {
    "parcelid": "H33 02301 0139", 
    "lon": "-84.271187", 
    "claimed": false, 
    "street": "4922 LITTLE RICHMOND RD, TROTWOOD", 
    "lot": false, 
    "lat": "39.775605"
  }, 
  {
    "parcelid": "P70 50208 0017", 
    "lon": "-84.138092", 
    "claimed": false, 
    "street": "5637 TROY VILLA BLVD, HUBER HEIGHTS", 
    "lot": false, 
    "lat": "39.853756"
  }, 
  {
    "parcelid": "E20 24204 0024", 
    "lon": "-84.246761", 
    "claimed": false, 
    "street": "3655 ELDERBERRY AVE, HARRISON TOWNSHIP", 
    "lot": false, 
    "lat": "39.812268"
  }, 
  {
    "parcelid": "I39 01020 0019", 
    "lon": "-84.124161", 
    "claimed": true, 
    "street": "2257 HAZELTON AVE, RIVERSIDE", 
    "lot": false, 
    "lat": "39.762370"
  }, 
  {
    "parcelid": "O68 50915 0076", 
    "lon": "-84.128936", 
    "claimed": false, 
    "street": "GREEN BRANCH DR, CENTERVILLE", 
    "lot": false, 
    "lat": "39.648710"
  }, 
  {
    "parcelid": "G29 18201 0067", 
    "lon": "-84.274194", 
    "claimed": false, 
    "street": "110 CHAIN AVE, JEFFERSON TOWNSHIP", 
    "lot": false, 
    "lat": "39.744450"
  }, 
  {
    "parcelid": "H33300904 0012", 
    "lon": "-84.255792", 
    "claimed": false, 
    "street": "4147 FREUDENBERGER AVE, TROTWOOD", 
    "lot": false, 
    "lat": "39.768700"
  }, 
  {
    "parcelid": "G27 18308 0092", 
    "lon": "-84.300389", 
    "claimed": false, 
    "street": "6 BRICKER AVE, JEFFERSON TOWNSHIP", 
    "lot": false, 
    "lat": "39.745677"
  }, 
  {
    "parcelid": "E20 17105A0090", 
    "lon": "-84.247830", 
    "claimed": false, 
    "street": "2209 FAIRPORT AVE, HARRISON TOWNSHIP", 
    "lot": false, 
    "lat": "39.789360"
  }, 
  {
    "parcelid": "E21 19003 0450", 
    "lon": "-84.157865", 
    "claimed": false, 
    "street": "EARLWOOD DR, HARRISON TOWNSHIP", 
    "lot": true, 
    "lat": "39.826822"
  }, 
  {
    "parcelid": "H33301004 0155", 
    "lon": "-84.263130", 
    "claimed": false, 
    "street": "FAIRGREEN DR, TROTWOOD", 
    "lot": true, 
    "lat": "39.811147"
  }, 
  {
    "parcelid": "A01 00109 0060", 
    "lon": "-84.255500", 
    "claimed": false, 
    "street": "8096 FREDERICK PIKE, BUTLER TOWNSHIP", 
    "lot": false, 
    "lat": "39.865139"
  }, 
  {
    "parcelid": "E20 17102 0047", 
    "lon": "-84.247958", 
    "claimed": false, 
    "street": "3608 EL PASO AVE, HARRISON TOWNSHIP", 
    "lot": false, 
    "lat": "39.798776"
  }, 
  {
    "parcelid": "H33300913 0154", 
    "lon": "-84.260743", 
    "claimed": false, 
    "street": "4225 BRUNSWICK AVE, TROTWOOD", 
    "lot": false, 
    "lat": "39.805006"
  }, 
  {
    "parcelid": "G29 18305 0032", 
    "lon": "-84.295096", 
    "claimed": false, 
    "street": "312 CALUMET LN, JEFFERSON TOWNSHIP", 
    "lot": true, 
    "lat": "39.741475"
  }, 
  {
    "parcelid": "I39 00121 0030", 
    "lon": "-84.131032", 
    "claimed": false, 
    "street": "4534 FAIR PARK AVE, RIVERSIDE", 
    "lot": false, 
    "lat": "39.774953"
  }, 
  {
    "parcelid": "H33300902 0017", 
    "lon": "-84.271501", 
    "claimed": false, 
    "street": "110 VICTORY DR, TROTWOOD", 
    "lot": false, 
    "lat": "39.749554"
  }, 
  {
    "parcelid": "I39 00518 0008", 
    "lon": "-84.145108", 
    "claimed": false, 
    "street": "1900 BRANDT PIKE, RIVERSIDE", 
    "lot": false, 
    "lat": "39.800941"
  }, 
  {
    "parcelid": "C05 00101 0061", 
    "lon": "-84.409166", 
    "claimed": false, 
    "street": "632 VINE ST, BROOKVILLE", 
    "lot": true, 
    "lat": "39.839332"
  }, 
  {
    "parcelid": "H33301124 0043", 
    "lon": "-84.256270", 
    "claimed": false, 
    "street": "4168 MOLANE ST, TROTWOOD", 
    "lot": false, 
    "lat": "39.807782"
  }, 
  {
    "parcelid": "E21 19003 0215", 
    "lon": "-84.157537", 
    "claimed": false, 
    "street": "ARBOR AVE, HARRISON TOWNSHIP", 
    "lot": true, 
    "lat": "39.829314"
  }, 
  {
    "parcelid": "H33 01709 0012", 
    "lon": "-84.325944", 
    "claimed": false, 
    "street": "5754 COURTNEY LN, TROTWOOD", 
    "lot": true, 
    "lat": "39.828247"
  }, 
  {
    "parcelid": "H33300821 0092", 
    "lon": "-84.280936", 
    "claimed": false, 
    "street": "236 MORGAN AVE, TROTWOOD", 
    "lot": false, 
    "lat": "39.749836"
  }, 
  {
    "parcelid": "I39 00704 0003", 
    "lon": "-84.148748", 
    "claimed": false, 
    "street": "BROADMEAD AVE, RIVERSIDE", 
    "lot": false, 
    "lat": "39.794534"
  }, 
  {
    "parcelid": "E20 17003 0001", 
    "lon": "-84.211420", 
    "claimed": false, 
    "street": "15 FER DON RD, HARRISON TOWNSHIP", 
    "lot": false, 
    "lat": "39.800868"
  }, 
  {
    "parcelid": "G27 18309 0073", 
    "lon": "-84.300330", 
    "claimed": false, 
    "street": "BRICKER AVE, JEFFERSON TOWNSHIP", 
    "lot": true, 
    "lat": "39.740554"
  }, 
  {
    "parcelid": "E21 19003 0509", 
    "lon": "-84.159046", 
    "claimed": false, 
    "street": "EDGEWATER DR, HARRISON TOWNSHIP", 
    "lot": true, 
    "lat": "39.830144"
  }, 
  {
    "parcelid": "H33300821 0065", 
    "lon": "-84.281418", 
    "claimed": false, 
    "street": "69 MORGAN AVE, TROTWOOD", 
    "lot": false, 
    "lat": "39.747498"
  }, 
  {
    "parcelid": "H33 02210 0120", 
    "lon": "-84.308112", 
    "claimed": false, 
    "street": "POST TOWN RD, TROTWOOD", 
    "lot": true, 
    "lat": "39.780682"
  }, 
  {
    "parcelid": "E20 17101B0025", 
    "lon": "-84.252129", 
    "claimed": false, 
    "street": "2600 GRANT AVE, HARRISON TOWNSHIP", 
    "lot": false, 
    "lat": "39.794703"
  }, 
  {
    "parcelid": "G27 18309 0194", 
    "lon": "-84.303287", 
    "claimed": false, 
    "street": "205 ALBERS AVE, JEFFERSON TOWNSHIP", 
    "lot": true, 
    "lat": "39.743121"
  }, 
  {
    "parcelid": "N64 00804 0010", 
    "lon": "-84.146786", 
    "claimed": false, 
    "street": "2759 SOUTH BLVD, KETTERING", 
    "lot": false, 
    "lat": "39.707466"
  }, 
  {
    "parcelid": "H33300905 0024", 
    "lon": "-84.262102", 
    "claimed": false, 
    "street": "4329 FREUDENBERGER AVE, TROTWOOD", 
    "lot": true, 
    "lat": "39.768600"
  }, 
  {
    "parcelid": "H33301015 0118", 
    "lon": "-84.255728", 
    "claimed": false, 
    "street": "3702 WILMORE ST, TROTWOOD", 
    "lot": false, 
    "lat": "39.800775"
  }, 
  {
    "parcelid": "G27 18315 0041", 
    "lon": "-84.266549", 
    "claimed": false, 
    "street": "4766 ERICSON AVE, JEFFERSON TOWNSHIP", 
    "lot": false, 
    "lat": "39.727723"
  }, 
  {
    "parcelid": "H33 01007 0012", 
    "lon": "-84.273791", 
    "claimed": false, 
    "street": "3411 DENLINGER RD, TROTWOOD", 
    "lot": false, 
    "lat": "39.796641"
  }, 
  {
    "parcelid": "M60 00201 0007", 
    "lon": "-84.367456", 
    "claimed": false, 
    "street": "379 W SALEM ST, CLAYTON", 
    "lot": true, 
    "lat": "39.860719"
  }, 
  {
    "parcelid": "H33 00109 0033", 
    "lon": "-84.305018", 
    "claimed": false, 
    "street": "22 RIO GRANDE DR, TROTWOOD", 
    "lot": false, 
    "lat": "39.795752"
  }, 
  {
    "parcelid": "H33 00311 0012", 
    "lon": "-84.319543", 
    "claimed": false, 
    "street": "325 GRAND AVE, TROTWOOD", 
    "lot": true, 
    "lat": "39.796539"
  }, 
  {
    "parcelid": "H33300901 0049", 
    "lon": "-84.269296", 
    "claimed": false, 
    "street": "338 CROWN AVE, TROTWOOD", 
    "lot": true, 
    "lat": "39.752582"
  }, 
  {
    "parcelid": "E20 17101B0049", 
    "lon": "-84.248364", 
    "claimed": false, 
    "street": "2612 WHEELER AVE, HARRISON TOWNSHIP", 
    "lot": false, 
    "lat": "39.793461"
  }, 
  {
    "parcelid": "E20 17001 0018", 
    "lon": "-84.221077", 
    "claimed": false, 
    "street": "23 W MELFORD AVE, HARRISON TOWNSHIP", 
    "lot": false, 
    "lat": "39.802702"
  }, 
  {
    "parcelid": "H33301009 0058", 
    "lon": "-84.265034", 
    "claimed": false, 
    "street": "3619 MARLIN AVE, TROTWOOD", 
    "lot": false, 
    "lat": "39.799636"
  }, 
  {
    "parcelid": "H33 02211 0033", 
    "lon": "-84.279855", 
    "claimed": false, 
    "street": "5365 LITTLE RICHMOND RD, TROTWOOD", 
    "lot": false, 
    "lat": "39.776344"
  }, 
  {
    "parcelid": "H33 02301 0115", 
    "lon": "-84.267733", 
    "claimed": false, 
    "street": "1593 GUENTHER RD, TROTWOOD", 
    "lot": false, 
    "lat": "39.769747"
  }, 
  {
    "parcelid": "E20 17104 0041", 
    "lon": "-84.246226", 
    "claimed": false, 
    "street": "3543 W HILLCREST AVE, HARRISON TOWNSHIP", 
    "lot": false, 
    "lat": "39.790926"
  }, 
  {
    "parcelid": "E20 17101B0023", 
    "lon": "-84.250440", 
    "claimed": false, 
    "street": "2601 HANCOCK AVE, HARRISON TOWNSHIP", 
    "lot": false, 
    "lat": "39.794039"
  }, 
  {
    "parcelid": "H33 01203 0010", 
    "lon": "-84.273466", 
    "claimed": false, 
    "street": "1120 GRAYSTONE DR, TROTWOOD", 
    "lot": false, 
    "lat": "39.763053"
  }, 
  {
    "parcelid": "K48 50301 0060", 
    "lon": "-84.235009", 
    "claimed": false, 
    "street": "1606 THUNDERBIRD LN, WEST CARROLLTON", 
    "lot": false, 
    "lat": "39.650400"
  }, 
  {
    "parcelid": "G27 01611 0005", 
    "lon": "-84.288069", 
    "claimed": false, 
    "street": "DAYTON LIBERTY RD, JEFFERSON TOWNSHIP", 
    "lot": false, 
    "lat": "39.730182"
  }, 
  {
    "parcelid": "E20 17006 0022", 
    "lon": "-84.217736", 
    "claimed": false, 
    "street": "30 WOODRUFF DR, HARRISON TOWNSHIP", 
    "lot": false, 
    "lat": "39.800834"
  }, 
  {
    "parcelid": "G27 18308 0107", 
    "lon": "-84.301052", 
    "claimed": false, 
    "street": "127 BRICKER AVE, JEFFERSON TOWNSHIP", 
    "lot": false, 
    "lat": "39.744071"
  }, 
  {
    "parcelid": "H33300912 0044", 
    "lon": "-84.264872", 
    "claimed": false, 
    "street": "4440 ANNAPOLIS AVE, TROTWOOD", 
    "lot": false, 
    "lat": "39.803145"
  }, 
  {
    "parcelid": "H33301011 0036", 
    "lon": "-84.265239", 
    "claimed": false, 
    "street": "3887 MYRON AVE, TROTWOOD", 
    "lot": false, 
    "lat": "39.803156"
  }, 
  {
    "parcelid": "E20 17001 0084", 
    "lon": "-84.220311", 
    "claimed": false, 
    "street": "32 REDDER AVE, HARRISON TOWNSHIP", 
    "lot": false, 
    "lat": "39.800622"
  }, 
  {
    "parcelid": "E20 50411 0003", 
    "lon": "-84.217325", 
    "claimed": false, 
    "street": "4004 LOFTY OAKS LN, HARRISON TOWNSHIP", 
    "lot": false, 
    "lat": "39.813068"
  }, 
  {
    "parcelid": "E21 17403 0083", 
    "lon": "-84.196106", 
    "claimed": false, 
    "street": "1917 ONTARIO AVE, HARRISON TOWNSHIP", 
    "lot": false, 
    "lat": "39.792528"
  }, 
  {
    "parcelid": "G27 01611 0045", 
    "lon": "-84.289564", 
    "claimed": false, 
    "street": "1190 OLT RD, JEFFERSON TOWNSHIP", 
    "lot": false, 
    "lat": "39.729125"
  }, 
  {
    "parcelid": "O68 50902 0132", 
    "lon": "-84.128428", 
    "claimed": false, 
    "street": "LAKE POINTE WAY, CENTERVILLE", 
    "lot": false, 
    "lat": "39.647590"
  }, 
  {
    "parcelid": "G29 18202A0019", 
    "lon": "-84.269396", 
    "claimed": false, 
    "street": "230 STRAND AVE, JEFFERSON TOWNSHIP", 
    "lot": false, 
    "lat": "39.742282"
  }, 
  {
    "parcelid": "H33 00817 0059", 
    "lon": "-84.294915", 
    "claimed": false, 
    "street": "6213 MELVIN AVE, TROTWOOD", 
    "lot": false, 
    "lat": "39.747621"
  }, 
  {
    "parcelid": "H33300913 0206", 
    "lon": "-84.260556", 
    "claimed": false, 
    "street": "4147 ANNAPOLIS AVE, TROTWOOD", 
    "lot": false, 
    "lat": "39.803694"
  }, 
  {
    "parcelid": "E21 19003 0157", 
    "lon": "-84.155823", 
    "claimed": false, 
    "street": "DEEPWOOD DR, HARRISON TOWNSHIP", 
    "lot": true, 
    "lat": "39.828043"
  }, 
  {
    "parcelid": "H33 01221 0007", 
    "lon": "-84.274512", 
    "claimed": false, 
    "street": "1423 STUBEN DR, TROTWOOD", 
    "lot": false, 
    "lat": "39.767121"
  }, 
  {
    "parcelid": "E21 17306 0107", 
    "lon": "-84.184889", 
    "claimed": false, 
    "street": "2423 OME AVE, HARRISON TOWNSHIP", 
    "lot": false, 
    "lat": "39.793679"
  }, 
  {
    "parcelid": "H33301105 0016", 
    "lon": "-84.254680", 
    "claimed": false, 
    "street": "4223 THOMPSON DR, TROTWOOD", 
    "lot": false, 
    "lat": "39.808217"
  }, 
  {
    "parcelid": "J44 20904 0056", 
    "lon": "-84.226087", 
    "claimed": false, 
    "street": "2821 HOLMAN ST, MORAINE", 
    "lot": true, 
    "lat": "39.704603"
  }, 
  {
    "parcelid": "D14 00804 0041", 
    "lon": "-84.402416", 
    "claimed": false, 
    "street": "11967 ST RT 725, GERMAN TOWNSHIP", 
    "lot": false, 
    "lat": "39.623829"
  }, 
  {
    "parcelid": "L54 00311 0007", 
    "lon": "-84.414783", 
    "claimed": false, 
    "street": "236 FOOTHILL DR, BROOKVILLE", 
    "lot": false, 
    "lat": "39.827280"
  }, 
  {
    "parcelid": "H33301022 0011", 
    "lon": "-84.256258", 
    "claimed": false, 
    "street": "4252 MOLANE ST, TROTWOOD", 
    "lot": false, 
    "lat": "39.808935"
  }, 
  {
    "parcelid": "G27 18309 0198", 
    "lon": "-84.303280", 
    "claimed": false, 
    "street": "ALBERS AVE, JEFFERSON TOWNSHIP", 
    "lot": true, 
    "lat": "39.742686"
  }, 
  {
    "parcelid": "E20 01005A0064", 
    "lon": "-84.222646", 
    "claimed": false, 
    "street": "SHILOH DR, HARRISON TOWNSHIP", 
    "lot": true, 
    "lat": "39.820939"
  }, 
  {
    "parcelid": "G27 18309 0200", 
    "lon": "-84.303276", 
    "claimed": false, 
    "street": "ALBERS                     AVE, JEFFERSON TOWNSHIP", 
    "lot": true, 
    "lat": "39.742468"
  }, 
  {
    "parcelid": "E21 17208 0109", 
    "lon": "-84.185317", 
    "claimed": false, 
    "street": "4930 WILDROSE DR, HARRISON TOWNSHIP", 
    "lot": false, 
    "lat": "39.811260"
  }, 
  {
    "parcelid": "G27 01611 0088", 
    "lon": "-84.279984", 
    "claimed": false, 
    "street": "1520 INFIRMARY RD, JEFFERSON TOWNSHIP", 
    "lot": true, 
    "lat": "39.724227"
  }, 
  {
    "parcelid": "G29 18205 0055", 
    "lon": "-84.294119", 
    "claimed": false, 
    "street": "26 IONA AVE, JEFFERSON TOWNSHIP", 
    "lot": false, 
    "lat": "39.745457"
  }, 
  {
    "parcelid": "G27 18301 0082", 
    "lon": "-84.327878", 
    "claimed": false, 
    "street": "DAYTON LIBERTY RD, JEFFERSON TOWNSHIP", 
    "lot": true, 
    "lat": "39.720602"
  }, 
  {
    "parcelid": "H33 00212 0037", 
    "lon": "-84.304565", 
    "claimed": false, 
    "street": "26 BROOKHAVEN DR, TROTWOOD", 
    "lot": false, 
    "lat": "39.787338"
  }, 
  {
    "parcelid": "G28 18308 0024", 
    "lon": "-84.298709", 
    "claimed": false, 
    "street": "LAWNCREST AVE, JEFFERSON TOWNSHIP", 
    "lot": true, 
    "lat": "39.744544"
  }, 
  {
    "parcelid": "G29 18201A0083", 
    "lon": "-84.273008", 
    "claimed": false, 
    "street": "HANOVER AVE, JEFFERSON TOWNSHIP", 
    "lot": true, 
    "lat": "39.743697"
  }, 
  {
    "parcelid": "E21 17403 0006", 
    "lon": "-84.192614", 
    "claimed": false, 
    "street": "2032 NEVA DR, HARRISON TOWNSHIP", 
    "lot": false, 
    "lat": "39.793925"
  }, 
  {
    "parcelid": "G27 18306 0051", 
    "lon": "-84.306343", 
    "claimed": false, 
    "street": "PAIGE                      AVE, JEFFERSON TOWNSHIP", 
    "lot": true, 
    "lat": "39.743745"
  }, 
  {
    "parcelid": "H33300902 0019", 
    "lon": "-84.271010", 
    "claimed": false, 
    "street": "107 PATTON AVE, TROTWOOD", 
    "lot": false, 
    "lat": "39.749447"
  }, 
  {
    "parcelid": "M58 00117 0026", 
    "lon": "-84.334369", 
    "claimed": false, 
    "street": "IRONGATE DR, UNION", 
    "lot": true, 
    "lat": "39.898766"
  }, 
  {
    "parcelid": "E21 19003 0048", 
    "lon": "-84.156357", 
    "claimed": false, 
    "street": "EDGEWATER DR, HARRISON TOWNSHIP", 
    "lot": true, 
    "lat": "39.830159"
  }, 
  {
    "parcelid": "H33 00817 0040", 
    "lon": "-84.294594", 
    "claimed": false, 
    "street": "6204 MELVIN AVE, TROTWOOD", 
    "lot": false, 
    "lat": "39.747143"
  }, 
  {
    "parcelid": "H33300901 0024", 
    "lon": "-84.268167", 
    "claimed": false, 
    "street": "426 HOLLENCAMP AVE, TROTWOOD", 
    "lot": true, 
    "lat": "39.754410"
  }, 
  {
    "parcelid": "H33 01223 0045", 
    "lon": "-84.281121", 
    "claimed": false, 
    "street": "5253 RUCKS RD, TROTWOOD", 
    "lot": false, 
    "lat": "39.767901"
  }, 
  {
    "parcelid": "E20 17101 0102", 
    "lon": "-84.249349", 
    "claimed": false, 
    "street": "WHEELER AVE, HARRISON TOWNSHIP", 
    "lot": true, 
    "lat": "39.792111"
  }, 
  {
    "parcelid": "G27 01704 0009", 
    "lon": "-84.308131", 
    "claimed": false, 
    "street": "2934 S UNION RD, JEFFERSON TOWNSHIP", 
    "lot": false, 
    "lat": "39.703288"
  }, 
  {
    "parcelid": "H33300902 0040", 
    "lon": "-84.270390", 
    "claimed": false, 
    "street": "PATTON AVE, TROTWOOD", 
    "lot": true, 
    "lat": "39.750765"
  }, 
  {
    "parcelid": "E21 19003 0365", 
    "lon": "-84.158527", 
    "claimed": false, 
    "street": "CRAIGWOOD DR, HARRISON TOWNSHIP", 
    "lot": true, 
    "lat": "39.828662"
  }, 
  {
    "parcelid": "E20 17012 0010", 
    "lon": "-84.249390", 
    "claimed": false, 
    "street": "3753 ARK AVE, HARRISON TOWNSHIP", 
    "lot": false, 
    "lat": "39.806404"
  }, 
  {
    "parcelid": "H33 00306 0026", 
    "lon": "-84.315011", 
    "claimed": false, 
    "street": "MAPLE ST, TROTWOOD", 
    "lot": true, 
    "lat": "39.798440"
  }, 
  {
    "parcelid": "E20 17101A0143", 
    "lon": "-84.250548", 
    "claimed": false, 
    "street": "2525 HANCOCK AVE, HARRISON TOWNSHIP", 
    "lot": true, 
    "lat": "39.793443"
  }, 
  {
    "parcelid": "E21 19003 0472", 
    "lon": "-84.158723", 
    "claimed": false, 
    "street": "EARLWOOD DR, HARRISON TOWNSHIP", 
    "lot": true, 
    "lat": "39.827378"
  }, 
  {
    "parcelid": "H33300901 0107", 
    "lon": "-84.271690", 
    "claimed": false, 
    "street": "LOME AVE, TROTWOOD", 
    "lot": true, 
    "lat": "39.752035"
  }, 
  {
    "parcelid": "H33300905 0026", 
    "lon": "-84.262463", 
    "claimed": false, 
    "street": "FREUDENBERGER AVE, TROTWOOD", 
    "lot": true, 
    "lat": "39.768594"
  }, 
  {
    "parcelid": "E20 17310 0022", 
    "lon": "-84.229804", 
    "claimed": false, 
    "street": "5308 N MAIN ST, HARRISON TOWNSHIP", 
    "lot": true, 
    "lat": "39.816059"
  }, 
  {
    "parcelid": "G29 18205 0159", 
    "lon": "-84.290857", 
    "claimed": false, 
    "street": "NORTHAMPTON                AVE, JEFFERSON TOWNSHIP", 
    "lot": true, 
    "lat": "39.743597"
  }, 
  {
    "parcelid": "E20 50106 0026", 
    "lon": "-84.239080", 
    "claimed": false, 
    "street": "4623 MERRICK DR, HARRISON TOWNSHIP", 
    "lot": false, 
    "lat": "39.814488"
  }, 
  {
    "parcelid": "E21 19003 0361", 
    "lon": "-84.158780", 
    "claimed": false, 
    "street": "CRAIGWOOD DR, HARRISON TOWNSHIP", 
    "lot": true, 
    "lat": "39.828993"
  }, 
  {
    "parcelid": "E21 19003 0359", 
    "lon": "-84.158906", 
    "claimed": false, 
    "street": "CRAIGWOOD DR, HARRISON TOWNSHIP", 
    "lot": true, 
    "lat": "39.829159"
  }, 
  {
    "parcelid": "H33 02311 0111", 
    "lon": "-84.285291", 
    "claimed": false, 
    "street": "6315 NATHANIEL ST, TROTWOOD", 
    "lot": false, 
    "lat": "39.750883"
  }, 
  {
    "parcelid": "C04 00509 0041", 
    "lon": "-84.444099", 
    "claimed": false, 
    "street": "9998 W NATIONAL RD, CLAY TOWNSHIP", 
    "lot": true, 
    "lat": "39.863873"
  }, 
  {
    "parcelid": "E21 19003 0170", 
    "lon": "-84.155516", 
    "claimed": false, 
    "street": "DEEPWOOD DR, HARRISON TOWNSHIP", 
    "lot": true, 
    "lat": "39.827073"
  }, 
  {
    "parcelid": "G29 18204A0008", 
    "lon": "-84.285614", 
    "claimed": false, 
    "street": "22 TAFT AVE, JEFFERSON TOWNSHIP", 
    "lot": true, 
    "lat": "39.745728"
  }, 
  {
    "parcelid": "K48 00812 0035", 
    "lon": "-84.243581", 
    "claimed": false, 
    "street": "1665 LONG BOW LN, WEST CARROLLTON", 
    "lot": true, 
    "lat": "39.652521"
  }, 
  {
    "parcelid": "H33302201 0069", 
    "lon": "-84.271649", 
    "claimed": false, 
    "street": "3225 ATLAS DR, TROTWOOD", 
    "lot": true, 
    "lat": "39.792073"
  }, 
  {
    "parcelid": "H33302201 0070", 
    "lon": "-84.271677", 
    "claimed": false, 
    "street": "3225 ATLAS DR, TROTWOOD", 
    "lot": true, 
    "lat": "39.792620"
  }, 
  {
    "parcelid": "H33300912 0077", 
    "lon": "-84.263691", 
    "claimed": false, 
    "street": "4409 ANNAPOLIS AVE, TROTWOOD", 
    "lot": true, 
    "lat": "39.803667"
  }, 
  {
    "parcelid": "E21 17205 0094", 
    "lon": "-84.190804", 
    "claimed": false, 
    "street": "2262 CORONETTE AVE, HARRISON TOWNSHIP", 
    "lot": false, 
    "lat": "39.809839"
  }, 
  {
    "parcelid": "G27 18303 0006", 
    "lon": "-84.258951", 
    "claimed": false, 
    "street": "GERMANTOWN PIKE, JEFFERSON TOWNSHIP", 
    "lot": true, 
    "lat": "39.730917"
  }, 
  {
    "parcelid": "G29 18205 0034", 
    "lon": "-84.294749", 
    "claimed": false, 
    "street": "29 IONA AVE, JEFFERSON TOWNSHIP", 
    "lot": false, 
    "lat": "39.745322"
  }, 
  {
    "parcelid": "G29 18204 0015", 
    "lon": "-84.285595", 
    "claimed": false, 
    "street": "40 TAFT AVE, JEFFERSON TOWNSHIP", 
    "lot": true, 
    "lat": "39.744904"
  }, 
  {
    "parcelid": "H33 01304 0025", 
    "lon": "-84.280297", 
    "claimed": false, 
    "street": "5386 HOOVER AVE, TROTWOOD", 
    "lot": false, 
    "lat": "39.761027"
  }, 
  {
    "parcelid": "K46 00112 0086", 
    "lon": "-84.281809", 
    "claimed": false, 
    "street": "551 SYCAMORE ST, MIAMISBURG", 
    "lot": true, 
    "lat": "39.645309"
  }, 
  {
    "parcelid": "E21 17205 0042", 
    "lon": "-84.191328", 
    "claimed": false, 
    "street": "2246 OTTELLO AVE, HARRISON TOWNSHIP", 
    "lot": true, 
    "lat": "39.810790"
  }, 
  {
    "parcelid": "H33301002 0031", 
    "lon": "-84.264221", 
    "claimed": false, 
    "street": "4139 BRENTON DR, TROTWOOD", 
    "lot": false, 
    "lat": "39.808861"
  }, 
  {
    "parcelid": "G29 18202 0069", 
    "lon": "-84.274790", 
    "claimed": false, 
    "street": "217 CHAIN AVE, JEFFERSON TOWNSHIP", 
    "lot": true, 
    "lat": "39.742001"
  }, 
  {
    "parcelid": "G29 18202A0061", 
    "lon": "-84.271269", 
    "claimed": false, 
    "street": "217 BLUECREST AVE, JEFFERSON TOWNSHIP", 
    "lot": true, 
    "lat": "39.742265"
  }, 
  {
    "parcelid": "G29 18202 0119", 
    "lon": "-84.275270", 
    "claimed": false, 
    "street": "OBERLIN AVE, JEFFERSON TOWNSHIP", 
    "lot": false, 
    "lat": "39.739899"
  }, 
  {
    "parcelid": "E21 17601 0089", 
    "lon": "-84.192120", 
    "claimed": false, 
    "street": "2250 CADIE AVE, HARRISON TOWNSHIP", 
    "lot": true, 
    "lat": "39.828188"
  }, 
  {
    "parcelid": "G27 18309 0120", 
    "lon": "-84.300997", 
    "claimed": false, 
    "street": "345 BRICKER AVE, JEFFERSON TOWNSHIP", 
    "lot": false, 
    "lat": "39.740546"
  }, 
  {
    "parcelid": "H33300813 0077", 
    "lon": "-84.289362", 
    "claimed": false, 
    "street": "162 DEVONSHIRE AVE, TROTWOOD", 
    "lot": true, 
    "lat": "39.748756"
  }, 
  {
    "parcelid": "G29 18205 0057", 
    "lon": "-84.294123", 
    "claimed": false, 
    "street": "22 IONA AVE, JEFFERSON TOWNSHIP", 
    "lot": false, 
    "lat": "39.745733"
  }, 
  {
    "parcelid": "E21 19003 0414", 
    "lon": "-84.159295", 
    "claimed": false, 
    "street": "CRAIGWOOD DR, HARRISON TOWNSHIP", 
    "lot": true, 
    "lat": "39.829100"
  }, 
  {
    "parcelid": "H33 01710 0008", 
    "lon": "-84.327384", 
    "claimed": false, 
    "street": "5802 COURTNEY LN, TROTWOOD", 
    "lot": true, 
    "lat": "39.830065"
  }, 
  {
    "parcelid": "E21 19003 0468", 
    "lon": "-84.159101", 
    "claimed": false, 
    "street": "PINE TREE, HARRISON TOWNSHIP", 
    "lot": true, 
    "lat": "39.827319"
  }, 
  {
    "parcelid": "G29 18202A0145", 
    "lon": "-84.272961", 
    "claimed": false, 
    "street": "246 HANOVER AVE, JEFFERSON TOWNSHIP", 
    "lot": true, 
    "lat": "39.741366"
  }, 
  {
    "parcelid": "H33 01220 0019", 
    "lon": "-84.276188", 
    "claimed": false, 
    "street": "5157 OSCEOLA DR, TROTWOOD", 
    "lot": false, 
    "lat": "39.765614"
  }, 
  {
    "parcelid": "G29 18202 0199", 
    "lon": "-84.277184", 
    "claimed": false, 
    "street": "HOLLAND AVE, JEFFERSON TOWNSHIP", 
    "lot": true, 
    "lat": "39.741312"
  }, 
  {
    "parcelid": "B02 00121 0048", 
    "lon": "-84.184143", 
    "claimed": false, 
    "street": "806 DONORA DR, VANDALIA", 
    "lot": false, 
    "lat": "39.894628"
  }, 
  {
    "parcelid": "H33300821 0073", 
    "lon": "-84.280814", 
    "claimed": false, 
    "street": "78 MORGAN AVE, TROTWOOD", 
    "lot": false, 
    "lat": "39.747617"
  }, 
  {
    "parcelid": "E21 17205A0067", 
    "lon": "-84.189748", 
    "claimed": false, 
    "street": "LODELL AVE, HARRISON TOWNSHIP", 
    "lot": true, 
    "lat": "39.807419"
  }, 
  {
    "parcelid": "P70 00202 1139", 
    "lon": "-84.171027", 
    "claimed": false, 
    "street": "SHORE DR, HUBER HEIGHTS", 
    "lot": true, 
    "lat": "39.845368"
  }, 
  {
    "parcelid": "E21 19003 0479", 
    "lon": "-84.159294", 
    "claimed": false, 
    "street": "EARLWOOD DR, HARRISON TOWNSHIP", 
    "lot": true, 
    "lat": "39.827897"
  }, 
  {
    "parcelid": "I39 00117 0029", 
    "lon": "-84.135160", 
    "claimed": false, 
    "street": "DERWENT DR, RIVERSIDE", 
    "lot": true, 
    "lat": "39.777147"
  }, 
  {
    "parcelid": "I39 00706 0042", 
    "lon": "-84.142752", 
    "claimed": false, 
    "street": "627 ASPEN AVE, RIVERSIDE", 
    "lot": true, 
    "lat": "39.795961"
  }, 
  {
    "parcelid": "E21 17207A0059", 
    "lon": "-84.180019", 
    "claimed": false, 
    "street": "OTTELLO AVE, HARRISON TOWNSHIP", 
    "lot": true, 
    "lat": "39.811260"
  }, 
  {
    "parcelid": "H33300821 0058", 
    "lon": "-84.281455", 
    "claimed": false, 
    "street": "123 MORGAN AVE, TROTWOOD", 
    "lot": true, 
    "lat": "39.748268"
  }, 
  {
    "parcelid": "G27 01606 0134", 
    "lon": "-84.364701", 
    "claimed": false, 
    "street": "MILE RD, JEFFERSON TOWNSHIP", 
    "lot": true, 
    "lat": "39.732144"
  }, 
  {
    "parcelid": "K50 18421 0145", 
    "lon": "-84.291513", 
    "claimed": false, 
    "street": "6032 SIXTH AVE, MIAMI TOWNSHIP", 
    "lot": false, 
    "lat": "39.593517"
  }, 
  {
    "parcelid": "E20 17107 0019", 
    "lon": "-84.252809", 
    "claimed": false, 
    "street": "2239 GRANT AVE, HARRISON TOWNSHIP", 
    "lot": false, 
    "lat": "39.790094"
  }, 
  {
    "parcelid": "E21 17207A0025", 
    "lon": "-84.181029", 
    "claimed": false, 
    "street": "WIRE DR, HARRISON TOWNSHIP", 
    "lot": true, 
    "lat": "39.811860"
  }, 
  {
    "parcelid": "H33301010 0048", 
    "lon": "-84.262011", 
    "claimed": false, 
    "street": "4361 CATALINA AVE, TROTWOOD", 
    "lot": false, 
    "lat": "39.801327"
  }, 
  {
    "parcelid": "E21 17303 0179", 
    "lon": "-84.186827", 
    "claimed": false, 
    "street": "2432 BERWYCK AVE, HARRISON TOWNSHIP", 
    "lot": false, 
    "lat": "39.796102"
  }, 
  {
    "parcelid": "A01 00309 0166", 
    "lon": "-84.224197", 
    "claimed": false, 
    "street": "YORKSHIRE DR, BUTLER TOWNSHIP", 
    "lot": true, 
    "lat": "39.855607"
  }, 
  {
    "parcelid": "M60 16323 0055", 
    "lon": "-84.337491", 
    "claimed": false, 
    "street": "STEINEMAN ST, CLAYTON", 
    "lot": true, 
    "lat": "39.872667"
  }, 
  {
    "parcelid": "H33300811 0030", 
    "lon": "-84.285634", 
    "claimed": false, 
    "street": "PENROD                     AVE, TROTWOOD", 
    "lot": true, 
    "lat": "39.749563"
  }, 
  {
    "parcelid": "G28 18309 0009", 
    "lon": "-84.298692", 
    "claimed": false, 
    "street": "233 LAWNCREST AVE, JEFFERSON TOWNSHIP", 
    "lot": false, 
    "lat": "39.742411"
  }, 
  {
    "parcelid": "C05 00205 0055", 
    "lon": "-84.410626", 
    "claimed": false, 
    "street": "406 MAPLE ST, BROOKVILLE", 
    "lot": true, 
    "lat": "39.832493"
  }, 
  {
    "parcelid": "G27 18312 0015", 
    "lon": "-84.306794", 
    "claimed": false, 
    "street": "ELLEN DR, JEFFERSON TOWNSHIP", 
    "lot": true, 
    "lat": "39.701191"
  }, 
  {
    "parcelid": "I39101408 0013", 
    "lon": "-84.112843", 
    "claimed": false, 
    "street": "MAYAPPLE AVE, RIVERSIDE", 
    "lot": true, 
    "lat": "39.749415"
  }, 
  {
    "parcelid": "H33 00417 0009", 
    "lon": "-84.298998", 
    "claimed": false, 
    "street": "WOLF CREEK PIKE, TROTWOOD", 
    "lot": true, 
    "lat": "39.793536"
  }, 
  {
    "parcelid": "E20 17101 0052", 
    "lon": "-84.246939", 
    "claimed": false, 
    "street": "FAIRPORT AVE, HARRISON TOWNSHIP", 
    "lot": true, 
    "lat": "39.793296"
  }, 
  {
    "parcelid": "H33300902 0037", 
    "lon": "-84.270400", 
    "claimed": false, 
    "street": "PATTON AVE, TROTWOOD", 
    "lot": true, 
    "lat": "39.751105"
  }, 
  {
    "parcelid": "K46 01105 0034", 
    "lon": "-84.298002", 
    "claimed": false, 
    "street": "ST RT 725, MIAMISBURG", 
    "lot": true, 
    "lat": "39.646848"
  }, 
  {
    "parcelid": "H33300913 0225", 
    "lon": "-84.258353", 
    "claimed": false, 
    "street": "4084 ANNAPOLIS AVE, TROTWOOD", 
    "lot": false, 
    "lat": "39.803211"
  }, 
  {
    "parcelid": "M57 01031 0015", 
    "lon": "-84.328762", 
    "claimed": false, 
    "street": "1003 WINDPOINTE WAY, ENGLEWOOD", 
    "lot": false, 
    "lat": "39.875824"
  }, 
  {
    "parcelid": "N64 01512 0021", 
    "lon": "-84.119911", 
    "claimed": false, 
    "street": "3031 PURDUE RD, KETTERING", 
    "lot": false, 
    "lat": "39.701857"
  }, 
  {
    "parcelid": "H33 01405 0003", 
    "lon": "-84.275711", 
    "claimed": false, 
    "street": "3706 CAMELOT RD, TROTWOOD", 
    "lot": true, 
    "lat": "39.800245"
  }, 
  {
    "parcelid": "E21 19003 0198", 
    "lon": "-84.157431", 
    "claimed": false, 
    "street": "GARDEN RD, HARRISON TOWNSHIP", 
    "lot": true, 
    "lat": "39.829581"
  }, 
  {
    "parcelid": "G29 18205 0015", 
    "lon": "-84.291907", 
    "claimed": false, 
    "street": "BRONSON ST, JEFFERSON TOWNSHIP", 
    "lot": true, 
    "lat": "39.743203"
  }, 
  {
    "parcelid": "N64 01512 0016", 
    "lon": "-84.119876", 
    "claimed": false, 
    "street": "2984 GALEWOOD ST, KETTERING", 
    "lot": false, 
    "lat": "39.702632"
  }, 
  {
    "parcelid": "K48 50421 0165", 
    "lon": "-84.235171", 
    "claimed": false, 
    "street": "1004 LOOKOUT TRL, WEST CARROLLTON", 
    "lot": false, 
    "lat": "39.646986"
  }, 
  {
    "parcelid": "B02 01419 0020", 
    "lon": "-84.188824", 
    "claimed": false, 
    "street": "O'HARA CT, VANDALIA", 
    "lot": true, 
    "lat": "39.877472"
  }, 
  {
    "parcelid": "G29 18201 0132", 
    "lon": "-84.275345", 
    "claimed": false, 
    "street": "144 OBERLIN AVE, JEFFERSON TOWNSHIP", 
    "lot": true, 
    "lat": "39.743451"
  }, 
  {
    "parcelid": "J44120914 0026", 
    "lon": "-84.241092", 
    "claimed": false, 
    "street": "BEECHGROVE RD, MORAINE", 
    "lot": true, 
    "lat": "39.685473"
  }, 
  {
    "parcelid": "K47 50517 0099", 
    "lon": "-84.211938", 
    "claimed": false, 
    "street": "2419 CREW CIR, MIAMI TOWNSHIP", 
    "lot": true, 
    "lat": "39.674563"
  }, 
  {
    "parcelid": "K46 00503 0023", 
    "lon": "-84.293542", 
    "claimed": false, 
    "street": "OLD MAIN ST, MIAMISBURG", 
    "lot": true, 
    "lat": "39.627336"
  }, 
  {
    "parcelid": "G27 18312 0009", 
    "lon": "-84.303776", 
    "claimed": false, 
    "street": "6701 ELLEN DR, JEFFERSON TOWNSHIP", 
    "lot": false, 
    "lat": "39.701255"
  }, 
  {
    "parcelid": "E20 01106 0205", 
    "lon": "-84.234686", 
    "claimed": false, 
    "street": "3200 PHILADELPHIA DR, HARRISON TOWNSHIP", 
    "lot": false, 
    "lat": "39.800920"
  }, 
  {
    "parcelid": "P70 04012 0009", 
    "lon": "-84.169892", 
    "claimed": false, 
    "street": "SHORE                DR, HUBER HEIGHTS", 
    "lot": true, 
    "lat": "39.844893"
  }, 
  {
    "parcelid": "G27 01801 0056", 
    "lon": "-84.286435", 
    "claimed": false, 
    "street": "5820 GERMANTOWN PIKE, JEFFERSON TOWNSHIP", 
    "lot": false, 
    "lat": "39.700909"
  }, 
  {
    "parcelid": "H33300904 0005", 
    "lon": "-84.254369", 
    "claimed": false, 
    "street": "4119 FREUDENBERGER AVE, TROTWOOD", 
    "lot": false, 
    "lat": "39.768722"
  }, 
  {
    "parcelid": "H33 01222 0007", 
    "lon": "-84.277951", 
    "claimed": false, 
    "street": "OSCEOLA DR, TROTWOOD", 
    "lot": true, 
    "lat": "39.765182"
  }, 
  {
    "parcelid": "H33300815 0017", 
    "lon": "-84.290128", 
    "claimed": false, 
    "street": "271 DEVONSHIRE AVE, TROTWOOD", 
    "lot": false, 
    "lat": "39.750172"
  }, 
  {
    "parcelid": "G27 01811 0049", 
    "lon": "-84.317233", 
    "claimed": false, 
    "street": "ST RT 4, JEFFERSON TOWNSHIP", 
    "lot": true, 
    "lat": "39.669644"
  }, 
  {
    "parcelid": "H33 00103 0036", 
    "lon": "-84.295658", 
    "claimed": false, 
    "street": "805 DUNCAN CT, TROTWOOD", 
    "lot": false, 
    "lat": "39.801969"
  }, 
  {
    "parcelid": "G29 18203 0029", 
    "lon": "-84.285548", 
    "claimed": false, 
    "street": "184 TAFT AVE, JEFFERSON TOWNSHIP", 
    "lot": false, 
    "lat": "39.742831"
  }, 
  {
    "parcelid": "H33300820 0001", 
    "lon": "-84.273026", 
    "claimed": false, 
    "street": "4982 FREE PIKE, TROTWOOD", 
    "lot": false, 
    "lat": "39.797349"
  }, 
  {
    "parcelid": "E21 19003 0463", 
    "lon": "-84.158892", 
    "claimed": false, 
    "street": "BIRCH DR, HARRISON TOWNSHIP", 
    "lot": true, 
    "lat": "39.827139"
  }, 
  {
    "parcelid": "J44121008 0022", 
    "lon": "-84.228044", 
    "claimed": false, 
    "street": "3001 TELHURST CT, MORAINE", 
    "lot": false, 
    "lat": "39.689780"
  }, 
  {
    "parcelid": "P70 02204 0002", 
    "lon": "-84.146001", 
    "claimed": false, 
    "street": "ELYSIAN WAY, HUBER HEIGHTS", 
    "lot": true, 
    "lat": "39.839131"
  }, 
  {
    "parcelid": "K50 02508 0026", 
    "lon": "-84.299583", 
    "claimed": false, 
    "street": "9224 VAUGHN RD, MIAMI TOWNSHIP", 
    "lot": true, 
    "lat": "39.609764"
  }, 
  {
    "parcelid": "Q71 01103 0009", 
    "lon": "-84.174931", 
    "claimed": false, 
    "street": "FAIRMONT AVE, OAKWOOD", 
    "lot": true, 
    "lat": "39.705969"
  }, 
  {
    "parcelid": "H33300822 0051", 
    "lon": "-84.279221", 
    "claimed": false, 
    "street": "191 POMEROY AVE, TROTWOOD", 
    "lot": true, 
    "lat": "39.749200"
  }, 
  {
    "parcelid": "H33300809 0045", 
    "lon": "-84.283775", 
    "claimed": false, 
    "street": "171 DREXEL AVE, TROTWOOD", 
    "lot": true, 
    "lat": "39.748929"
  }, 
  {
    "parcelid": "G27 18308 0090", 
    "lon": "-84.300388", 
    "claimed": false, 
    "street": "BRICKER AVE, JEFFERSON TOWNSHIP", 
    "lot": true, 
    "lat": "39.745456"
  }, 
  {
    "parcelid": "H33 01201 0033", 
    "lon": "-84.268069", 
    "claimed": false, 
    "street": "4782 GARDENDALE AVE, TROTWOOD", 
    "lot": false, 
    "lat": "39.765967"
  }, 
  {
    "parcelid": "G27 01610 0016", 
    "lon": "-84.308381", 
    "claimed": false, 
    "street": "1654 S UNION RD, JEFFERSON TOWNSHIP", 
    "lot": false, 
    "lat": "39.721705"
  }, 
  {
    "parcelid": "H33 01220 0040", 
    "lon": "-84.275881", 
    "claimed": false, 
    "street": "5143 RUCKS RD, TROTWOOD", 
    "lot": false, 
    "lat": "39.766386"
  }, 
  {
    "parcelid": "H33300810 0002", 
    "lon": "-84.282464", 
    "claimed": false, 
    "street": "67 MILLER AVE, TROTWOOD", 
    "lot": true, 
    "lat": "39.747432"
  }, 
  {
    "parcelid": "G29 18203A0040", 
    "lon": "-84.285511", 
    "claimed": false, 
    "street": "TAFT AVE, JEFFERSON TOWNSHIP", 
    "lot": true, 
    "lat": "39.741188"
  }, 
  {
    "parcelid": "H33301317 0001", 
    "lon": "-84.261273", 
    "claimed": false, 
    "street": "4307 NEVADA AVE, TROTWOOD", 
    "lot": false, 
    "lat": "39.802818"
  }, 
  {
    "parcelid": "E21 19003 0456", 
    "lon": "-84.158454", 
    "claimed": false, 
    "street": "37480 BIRCH DR, HARRISON TOWNSHIP", 
    "lot": true, 
    "lat": "39.826944"
  }, 
  {
    "parcelid": "K46 00112 0050", 
    "lon": "-84.279894", 
    "claimed": false, 
    "street": "638 SENNETT ST, MIAMISBURG", 
    "lot": false, 
    "lat": "39.646300"
  }, 
  {
    "parcelid": "G27 18306 0006", 
    "lon": "-84.305802", 
    "claimed": false, 
    "street": "6 PAIGE AVE, JEFFERSON TOWNSHIP", 
    "lot": true, 
    "lat": "39.745793"
  }, 
  {
    "parcelid": "H33300905 0023", 
    "lon": "-84.261929", 
    "claimed": false, 
    "street": "FREUDENBERGER AVE, TROTWOOD", 
    "lot": true, 
    "lat": "39.768603"
  }, 
  {
    "parcelid": "H33300905 0099", 
    "lon": "-84.260111", 
    "claimed": false, 
    "street": "4244 GARDENDALE AVE, TROTWOOD", 
    "lot": false, 
    "lat": "39.767125"
  }, 
  {
    "parcelid": "E20 17101B0099", 
    "lon": "-84.250844", 
    "claimed": false, 
    "street": "2641 FALMOUTH AVE, HARRISON TOWNSHIP", 
    "lot": true, 
    "lat": "39.795553"
  }, 
  {
    "parcelid": "H33300905 0040", 
    "lon": "-84.260848", 
    "claimed": false, 
    "street": "4300 FREUDENBERGER AVE, TROTWOOD", 
    "lot": false, 
    "lat": "39.768071"
  }, 
  {
    "parcelid": "E20 17102 0074", 
    "lon": "-84.246842", 
    "claimed": false, 
    "street": "3545 EVANSVILLE AVE, HARRISON TOWNSHIP", 
    "lot": true, 
    "lat": "39.800230"
  }, 
  {
    "parcelid": "O68 50908 0104", 
    "lon": "-84.130971", 
    "claimed": false, 
    "street": "HOLLOW RUN, CENTERVILLE", 
    "lot": false, 
    "lat": "39.647689"
  }, 
  {
    "parcelid": "G27 18307 0092", 
    "lon": "-84.307272", 
    "claimed": false, 
    "street": "JONQUIL ST, JEFFERSON TOWNSHIP", 
    "lot": true, 
    "lat": "39.742915"
  }, 
  {
    "parcelid": "Q71 00601 0012", 
    "lon": "-84.185246", 
    "claimed": false, 
    "street": "KRAMER RD, OAKWOOD", 
    "lot": true, 
    "lat": "39.726795"
  }, 
  {
    "parcelid": "M60 16323 0027", 
    "lon": "-84.337124", 
    "claimed": false, 
    "street": "FLAUTE ST, CLAYTON", 
    "lot": true, 
    "lat": "39.871351"
  }, 
  {
    "parcelid": "G29 18201 0137", 
    "lon": "-84.275334", 
    "claimed": false, 
    "street": "168 OBERLIN AVE, JEFFERSON TOWNSHIP", 
    "lot": false, 
    "lat": "39.742902"
  }, 
  {
    "parcelid": "H33 02309 0056", 
    "lon": "-84.329132", 
    "claimed": false, 
    "street": "604 N SNYDER RD, TROTWOOD", 
    "lot": true, 
    "lat": "39.755070"
  }, 
  {
    "parcelid": "E20 17001 0133", 
    "lon": "-84.220446", 
    "claimed": false, 
    "street": "19 CAMDEN AVE, HARRISON TOWNSHIP", 
    "lot": false, 
    "lat": "39.799483"
  }, 
  {
    "parcelid": "G29 18203A0094", 
    "lon": "-84.284140", 
    "claimed": false, 
    "street": "DAVENPORT AVE, JEFFERSON TOWNSHIP", 
    "lot": true, 
    "lat": "39.740971"
  }, 
  {
    "parcelid": "G29 18202 0023", 
    "lon": "-84.273588", 
    "claimed": false, 
    "street": "305 HANOVER AVE, JEFFERSON TOWNSHIP", 
    "lot": true, 
    "lat": "39.740255"
  }, 
  {
    "parcelid": "E20 17102 0075", 
    "lon": "-84.246682", 
    "claimed": false, 
    "street": "3545 EVANSVILLE AVE, HARRISON TOWNSHIP", 
    "lot": true, 
    "lat": "39.800232"
  }, 
  {
    "parcelid": "I39 00705 0057", 
    "lon": "-84.145089", 
    "claimed": false, 
    "street": "621 TYRON AVE, RIVERSIDE", 
    "lot": false, 
    "lat": "39.795833"
  }, 
  {
    "parcelid": "G27 18315 0043", 
    "lon": "-84.266088", 
    "claimed": false, 
    "street": "4754 ERICSON AVE, JEFFERSON TOWNSHIP", 
    "lot": false, 
    "lat": "39.727728"
  }, 
  {
    "parcelid": "E20 24113 0020", 
    "lon": "-84.245457", 
    "claimed": false, 
    "street": "3541 HANEY RD, HARRISON TOWNSHIP", 
    "lot": false, 
    "lat": "39.805720"
  }, 
  {
    "parcelid": "G27 18213 0036", 
    "lon": "-84.271366", 
    "claimed": false, 
    "street": "5014 FORTMAN DR, JEFFERSON TOWNSHIP", 
    "lot": false, 
    "lat": "39.721552"
  }, 
  {
    "parcelid": "K46 00112 0118", 
    "lon": "-84.281842", 
    "claimed": false, 
    "street": "548 SYCAMORE ST, MIAMISBURG", 
    "lot": false, 
    "lat": "39.644548"
  }, 
  {
    "parcelid": "M60 16323 0016", 
    "lon": "-84.338429", 
    "claimed": false, 
    "street": "8831 MEIRING ST, CLAYTON", 
    "lot": true, 
    "lat": "39.871210"
  }, 
  {
    "parcelid": "E20 17101A0145", 
    "lon": "-84.250547", 
    "claimed": false, 
    "street": "2523 HANCOCK AVE, HARRISON TOWNSHIP", 
    "lot": true, 
    "lat": "39.793195"
  }, 
  {
    "parcelid": "H33300815 0040", 
    "lon": "-84.290604", 
    "claimed": false, 
    "street": "N NORTHAMPTON AVE, TROTWOOD", 
    "lot": true, 
    "lat": "39.748407"
  }, 
  {
    "parcelid": "E21 19003 0050", 
    "lon": "-84.156233", 
    "claimed": false, 
    "street": "5415 EDGEWATER DR, HARRISON TOWNSHIP", 
    "lot": false, 
    "lat": "39.829994"
  }, 
  {
    "parcelid": "A01 25922 0008", 
    "lon": "-84.240350", 
    "claimed": false, 
    "street": "MEEKER WOODS, BUTLER TOWNSHIP", 
    "lot": true, 
    "lat": "39.847902"
  }, 
  {
    "parcelid": "H33 02210 0025", 
    "lon": "-84.310491", 
    "claimed": false, 
    "street": "2112 N UNION RD, TROTWOOD", 
    "lot": false, 
    "lat": "39.777348"
  }, 
  {
    "parcelid": "I39 00912 0066", 
    "lon": "-84.104344", 
    "claimed": false, 
    "street": "TRAVIS DR, RIVERSIDE", 
    "lot": true, 
    "lat": "39.760157"
  }, 
  {
    "parcelid": "G29 18201 0103", 
    "lon": "-84.274822", 
    "claimed": false, 
    "street": "151 CHAIN AVE, JEFFERSON TOWNSHIP", 
    "lot": true, 
    "lat": "39.743566"
  }, 
  {
    "parcelid": "E21 17407 0073", 
    "lon": "-84.195371", 
    "claimed": false, 
    "street": "2214 HARDING AVE, HARRISON TOWNSHIP", 
    "lot": false, 
    "lat": "39.831325"
  }, 
  {
    "parcelid": "H33300815 0029", 
    "lon": "-84.290666", 
    "claimed": false, 
    "street": "220 N NORTHAMPTON AVE, TROTWOOD", 
    "lot": true, 
    "lat": "39.749616"
  }, 
  {
    "parcelid": "G27 18309 0212", 
    "lon": "-84.303436", 
    "claimed": false, 
    "street": "ALBERS AVE, JEFFERSON TOWNSHIP", 
    "lot": true, 
    "lat": "39.740982"
  }, 
  {
    "parcelid": "G28 18309 0055", 
    "lon": "-84.299854", 
    "claimed": false, 
    "street": "MAEDER AVE, JEFFERSON TOWNSHIP", 
    "lot": true, 
    "lat": "39.742617"
  }, 
  {
    "parcelid": "B02 01419 0028", 
    "lon": "-84.188864", 
    "claimed": false, 
    "street": "O'HARA CT, VANDALIA", 
    "lot": true, 
    "lat": "39.876068"
  }, 
  {
    "parcelid": "G27 01611 0022", 
    "lon": "-84.276470", 
    "claimed": false, 
    "street": "1615 KIMMEL LN, JEFFERSON TOWNSHIP", 
    "lot": false, 
    "lat": "39.722949"
  }, 
  {
    "parcelid": "G29 18205 0162", 
    "lon": "-84.290866", 
    "claimed": false, 
    "street": "114 NORTHAMPTON AVE, JEFFERSON TOWNSHIP", 
    "lot": true, 
    "lat": "39.744006"
  }, 
  {
    "parcelid": "G27 18218 0018", 
    "lon": "-84.273137", 
    "claimed": false, 
    "street": "WYBURN PL, JEFFERSON TOWNSHIP", 
    "lot": true, 
    "lat": "39.723164"
  }, 
  {
    "parcelid": "G29 18202A0122", 
    "lon": "-84.272409", 
    "claimed": false, 
    "street": "301 COLGATE AVE, JEFFERSON TOWNSHIP", 
    "lot": false, 
    "lat": "39.740491"
  }, 
  {
    "parcelid": "K46 00112 0104", 
    "lon": "-84.279331", 
    "claimed": false, 
    "street": "SYCAMORE ST, MIAMISBURG", 
    "lot": true, 
    "lat": "39.644835"
  }, 
  {
    "parcelid": "E21 17207 0088", 
    "lon": "-84.182298", 
    "claimed": false, 
    "street": "CORONETTE AVE, HARRISON TOWNSHIP", 
    "lot": true, 
    "lat": "39.809174"
  }, 
  {
    "parcelid": "K50 18421 0112", 
    "lon": "-84.291676", 
    "claimed": false, 
    "street": "6020 THIRD AVE, MIAMI TOWNSHIP", 
    "lot": false, 
    "lat": "39.591904"
  }, 
  {
    "parcelid": "K45200112 0007", 
    "lon": "-84.222175", 
    "claimed": false, 
    "street": "MCDANIELS LN, SPRINGBORO", 
    "lot": true, 
    "lat": "39.588218"
  }, 
  {
    "parcelid": "H33302212 0062", 
    "lon": "-84.260556", 
    "claimed": false, 
    "street": "4383 LITTLE RICHMOND RD, TROTWOOD", 
    "lot": false, 
    "lat": "39.776470"
  }, 
  {
    "parcelid": "H33 01118 0034", 
    "lon": "-84.264351", 
    "claimed": false, 
    "street": "4588 LOTUS DR, TROTWOOD", 
    "lot": false, 
    "lat": "39.768703"
  }, 
  {
    "parcelid": "E20 24111 0042", 
    "lon": "-84.246255", 
    "claimed": false, 
    "street": "4108 FLEETWOOD DR, HARRISON TOWNSHIP", 
    "lot": false, 
    "lat": "39.809828"
  }, 
  {
    "parcelid": "K50 18421 0013", 
    "lon": "-84.290648", 
    "claimed": false, 
    "street": "6034 SECOND AVE, MIAMI TOWNSHIP", 
    "lot": false, 
    "lat": "39.591454"
  }, 
  {
    "parcelid": "K45 23101 0007", 
    "lon": "-84.302062", 
    "claimed": false, 
    "street": "ZECK RD, MIAMI TOWNSHIP", 
    "lot": true, 
    "lat": "39.624558"
  }, 
  {
    "parcelid": "E20 24314 0006", 
    "lon": "-84.234045", 
    "claimed": false, 
    "street": "106 TALL HICKORY TRL, HARRISON TOWNSHIP", 
    "lot": false, 
    "lat": "39.816197"
  }, 
  {
    "parcelid": "E20 17501 0137", 
    "lon": "-84.231223", 
    "claimed": false, 
    "street": "LYNN AVE, HARRISON TOWNSHIP", 
    "lot": true, 
    "lat": "39.791872"
  }, 
  {
    "parcelid": "H33 01608 0005", 
    "lon": "-84.276013", 
    "claimed": false, 
    "street": "AMANDA DR, TROTWOOD", 
    "lot": true, 
    "lat": "39.795107"
  }, 
  {
    "parcelid": "H33 01408 0020", 
    "lon": "-84.272252", 
    "claimed": false, 
    "street": "4543 KNOLLCROFT RD, TROTWOOD", 
    "lot": false, 
    "lat": "39.823285"
  }, 
  {
    "parcelid": "H33 01213 0010", 
    "lon": "-84.269878", 
    "claimed": false, 
    "street": "1370 AZALEA DR, TROTWOOD", 
    "lot": false, 
    "lat": "39.766795"
  }, 
  {
    "parcelid": "M60 16323 0052", 
    "lon": "-84.337185", 
    "claimed": false, 
    "street": "STEINEMAN ST, CLAYTON", 
    "lot": true, 
    "lat": "39.872842"
  }, 
  {
    "parcelid": "G29 18202A0094", 
    "lon": "-84.271808", 
    "claimed": false, 
    "street": "COLGATE AVE, JEFFERSON TOWNSHIP", 
    "lot": true, 
    "lat": "39.740166"
  }, 
  {
    "parcelid": "G27 18317 0003", 
    "lon": "-84.282273", 
    "claimed": false, 
    "street": "PARK GLEN DR, JEFFERSON TOWNSHIP", 
    "lot": true, 
    "lat": "39.731231"
  }, 
  {
    "parcelid": "K46 00106 0033", 
    "lon": "-84.290418", 
    "claimed": false, 
    "street": "RIVERVIEW RD, MIAMISBURG", 
    "lot": true, 
    "lat": "39.648412"
  }, 
  {
    "parcelid": "G29 18202A0092", 
    "lon": "-84.271812", 
    "claimed": false, 
    "street": "COLGATE AVE, JEFFERSON TOWNSHIP", 
    "lot": true, 
    "lat": "39.740387"
  }, 
  {
    "parcelid": "E21 19003 0126", 
    "lon": "-84.156609", 
    "claimed": false, 
    "street": "DEEPWOOD DR, HARRISON TOWNSHIP", 
    "lot": true, 
    "lat": "39.829073"
  }, 
  {
    "parcelid": "E20 17102A0074", 
    "lon": "-84.248724", 
    "claimed": false, 
    "street": "DETROIT AVE, HARRISON TOWNSHIP", 
    "lot": true, 
    "lat": "39.802038"
  }, 
  {
    "parcelid": "M58 00117 0024", 
    "lon": "-84.333716", 
    "claimed": false, 
    "street": "IRONGATE DR, UNION", 
    "lot": true, 
    "lat": "39.898798"
  }, 
  {
    "parcelid": "G28 18309 0046", 
    "lon": "-84.299184", 
    "claimed": false, 
    "street": "208 MAEDER AVE, JEFFERSON TOWNSHIP", 
    "lot": true, 
    "lat": "39.743062"
  }, 
  {
    "parcelid": "H33 01222 0031", 
    "lon": "-84.277732", 
    "claimed": false, 
    "street": "1240 MAROT DR, TROTWOOD", 
    "lot": false, 
    "lat": "39.766312"
  }, 
  {
    "parcelid": "I39 00716 0011", 
    "lon": "-84.136502", 
    "claimed": false, 
    "street": "RONDOWA AVE, RIVERSIDE", 
    "lot": true, 
    "lat": "39.794680"
  }, 
  {
    "parcelid": "G29 18201A0064", 
    "lon": "-84.273050", 
    "claimed": false, 
    "street": "HANOVER AVE, JEFFERSON TOWNSHIP", 
    "lot": true, 
    "lat": "39.745917"
  }, 
  {
    "parcelid": "G27 18309 0100", 
    "lon": "-84.301018", 
    "claimed": false, 
    "street": "213 BRICKER AVE, JEFFERSON TOWNSHIP", 
    "lot": false, 
    "lat": "39.742930"
  }, 
  {
    "parcelid": "G27 24506 0049", 
    "lon": "-84.300844", 
    "claimed": false, 
    "street": "401 BRICKER AVE, JEFFERSON TOWNSHIP", 
    "lot": true, 
    "lat": "39.739976"
  }, 
  {
    "parcelid": "H33 01218 0018", 
    "lon": "-84.275208", 
    "claimed": false, 
    "street": "5151 GARDENDALE AVE, TROTWOOD", 
    "lot": false, 
    "lat": "39.767056"
  }, 
  {
    "parcelid": "L55 16505 0013", 
    "lon": "-84.461612", 
    "claimed": false, 
    "street": "4633 N SULPHUR SPRINGS RD, PERRY TOWNSHIP", 
    "lot": false, 
    "lat": "39.812342"
  }, 
  {
    "parcelid": "G27 18307 0091", 
    "lon": "-84.307272", 
    "claimed": false, 
    "street": "JONQUIL ST, JEFFERSON TOWNSHIP", 
    "lot": true, 
    "lat": "39.742970"
  }, 
  {
    "parcelid": "G27 18309 0138", 
    "lon": "-84.301491", 
    "claimed": false, 
    "street": "224 PARSONS AVE, JEFFERSON TOWNSHIP", 
    "lot": true, 
    "lat": "39.742599"
  }, 
  {
    "parcelid": "E21 24105 0018", 
    "lon": "-84.185618", 
    "claimed": false, 
    "street": "3961 NORLEDGE DR, HARRISON TOWNSHIP", 
    "lot": true, 
    "lat": "39.805895"
  }, 
  {
    "parcelid": "M58 00117 0016", 
    "lon": "-84.333662", 
    "claimed": false, 
    "street": "IRONGATE DR, UNION", 
    "lot": true, 
    "lat": "39.899255"
  }, 
  {
    "parcelid": "J44120913 0054", 
    "lon": "-84.235921", 
    "claimed": false, 
    "street": "3357 TRAIL ON RD, MORAINE", 
    "lot": false, 
    "lat": "39.686552"
  }, 
  {
    "parcelid": "E21 17601 0042", 
    "lon": "-84.191698", 
    "claimed": false, 
    "street": "WILDING AVE, HARRISON TOWNSHIP", 
    "lot": true, 
    "lat": "39.829891"
  }, 
  {
    "parcelid": "C08 00102 0010", 
    "lon": "-84.403167", 
    "claimed": false, 
    "street": "16 W WALNUT ST, PHILLIPSBURG", 
    "lot": false, 
    "lat": "39.905681"
  }, 
  {
    "parcelid": "G27 18307 0067", 
    "lon": "-84.306329", 
    "claimed": false, 
    "street": "PAIGE AVE, JEFFERSON TOWNSHIP", 
    "lot": true, 
    "lat": "39.742481"
  }, 
  {
    "parcelid": "E20 17105 0058", 
    "lon": "-84.246743", 
    "claimed": false, 
    "street": "ALPENA AVE, HARRISON TOWNSHIP", 
    "lot": true, 
    "lat": "39.789646"
  }, 
  {
    "parcelid": "E20 17105 0060", 
    "lon": "-84.246768", 
    "claimed": false, 
    "street": "ALPENA AVE, HARRISON TOWNSHIP", 
    "lot": true, 
    "lat": "39.789371"
  }, 
  {
    "parcelid": "G28 18308 0041", 
    "lon": "-84.299201", 
    "claimed": false, 
    "street": "116 MAEDER AVE, JEFFERSON TOWNSHIP", 
    "lot": false, 
    "lat": "39.744317"
  }, 
  {
    "parcelid": "H33300914 0005", 
    "lon": "-84.254924", 
    "claimed": false, 
    "street": "4050 HANEY RD, TROTWOOD", 
    "lot": true, 
    "lat": "39.805014"
  }, 
  {
    "parcelid": "G29 18201 0091", 
    "lon": "-84.274852", 
    "claimed": false, 
    "street": "53 CHAIN AVE, JEFFERSON TOWNSHIP", 
    "lot": true, 
    "lat": "39.745019"
  }, 
  {
    "parcelid": "O67 03815 0046", 
    "lon": "-84.169698", 
    "claimed": false, 
    "street": "NORMANDY CREEK DR, WASHINGTON TOWNSHIP", 
    "lot": true, 
    "lat": "39.619365"
  }, 
  {
    "parcelid": "H33 02202 0053", 
    "lon": "-84.276094", 
    "claimed": false, 
    "street": "5144 WOLF CREEK PIKE, TROTWOOD", 
    "lot": false, 
    "lat": "39.792174"
  }, 
  {
    "parcelid": "E20 17007 0174", 
    "lon": "-84.214000", 
    "claimed": false, 
    "street": "324 SPRINGBROOK BLVD, HARRISON TOWNSHIP", 
    "lot": false, 
    "lat": "39.803958"
  }, 
  {
    "parcelid": "G27 18306 0105", 
    "lon": "-84.307284", 
    "claimed": false, 
    "street": "133 JONQUIL ST, JEFFERSON TOWNSHIP", 
    "lot": true, 
    "lat": "39.743629"
  }, 
  {
    "parcelid": "H33 01221 0028", 
    "lon": "-84.275870", 
    "claimed": false, 
    "street": "1360 WATKINS PL, TROTWOOD", 
    "lot": false, 
    "lat": "39.767927"
  }, 
  {
    "parcelid": "K48 00508 0013", 
    "lon": "-84.225779", 
    "claimed": false, 
    "street": "SHEFFIELD RD, WEST CARROLLTON", 
    "lot": true, 
    "lat": "39.680798"
  }, 
  {
    "parcelid": "G27 18306 0053", 
    "lon": "-84.306342", 
    "claimed": false, 
    "street": "PAIGE                      AVE, JEFFERSON TOWNSHIP", 
    "lot": true, 
    "lat": "39.743635"
  }, 
  {
    "parcelid": "D14 00912 0041", 
    "lon": "-84.364830", 
    "claimed": false, 
    "street": "EBY RD, GERMAN TOWNSHIP", 
    "lot": true, 
    "lat": "39.592406"
  }, 
  {
    "parcelid": "I39101408 0014", 
    "lon": "-84.112831", 
    "claimed": false, 
    "street": "MAYAPPLE AVE, RIVERSIDE", 
    "lot": true, 
    "lat": "39.749533"
  }, 
  {
    "parcelid": "E21 17207A0076", 
    "lon": "-84.180998", 
    "claimed": false, 
    "street": "4812 WIRE DR, HARRISON TOWNSHIP", 
    "lot": true, 
    "lat": "39.810275"
  }, 
  {
    "parcelid": "B02 01419 0012", 
    "lon": "-84.189166", 
    "claimed": false, 
    "street": "OHARA DR, VANDALIA", 
    "lot": true, 
    "lat": "39.876311"
  }, 
  {
    "parcelid": "M58 00117 0009", 
    "lon": "-84.334112", 
    "claimed": false, 
    "street": "WESTROCK FARM DR, UNION", 
    "lot": true, 
    "lat": "39.899779"
  }, 
  {
    "parcelid": "H33 01509 0035", 
    "lon": "-84.300847", 
    "claimed": false, 
    "street": "6401 GREENBROOK DR, TROTWOOD", 
    "lot": false, 
    "lat": "39.829239"
  }, 
  {
    "parcelid": "E21 17408 0142", 
    "lon": "-84.192151", 
    "claimed": false, 
    "street": "WILDING AVE, HARRISON TOWNSHIP", 
    "lot": true, 
    "lat": "39.830339"
  }, 
  {
    "parcelid": "E21 17408 0144", 
    "lon": "-84.192479", 
    "claimed": false, 
    "street": "WILDING AVE, HARRISON TOWNSHIP", 
    "lot": true, 
    "lat": "39.830335"
  }, 
  {
    "parcelid": "H33 01213 0045", 
    "lon": "-84.269474", 
    "claimed": false, 
    "street": "1525 AZALEA DR, TROTWOOD", 
    "lot": false, 
    "lat": "39.768467"
  }, 
  {
    "parcelid": "M58 00408 0010", 
    "lon": "-84.334141", 
    "claimed": false, 
    "street": "WESTROCK FARM DR, UNION", 
    "lot": true, 
    "lat": "39.902445"
  }, 
  {
    "parcelid": "H33 02303 0025", 
    "lon": "-84.306549", 
    "claimed": false, 
    "street": "6750 LITTLE RICHMOND RD, TROTWOOD", 
    "lot": false, 
    "lat": "39.775389"
  }, 
  {
    "parcelid": "H33300811 0070", 
    "lon": "-84.286894", 
    "claimed": false, 
    "street": "216 LENSDALE AVE, TROTWOOD", 
    "lot": true, 
    "lat": "39.749549"
  }, 
  {
    "parcelid": "H33 02304 0039", 
    "lon": "-84.317310", 
    "claimed": false, 
    "street": "7300 LITTLE RICHMOND RD, TROTWOOD", 
    "lot": false, 
    "lat": "39.774044"
  }, 
  {
    "parcelid": "E20 17102 0124", 
    "lon": "-84.247007", 
    "claimed": false, 
    "street": "EVANSVILLE AVE, HARRISON TOWNSHIP", 
    "lot": true, 
    "lat": "39.799721"
  }, 
  {
    "parcelid": "G27 18306 0031", 
    "lon": "-84.306336", 
    "claimed": false, 
    "street": "23 PAIGE AVE, JEFFERSON TOWNSHIP", 
    "lot": false, 
    "lat": "39.745174"
  }, 
  {
    "parcelid": "H33301010 0029", 
    "lon": "-84.262017", 
    "claimed": false, 
    "street": "4362 CURUNDU AVE, TROTWOOD", 
    "lot": false, 
    "lat": "39.801633"
  }, 
  {
    "parcelid": "J44 20904 0031", 
    "lon": "-84.227153", 
    "claimed": false, 
    "street": "GLADSTONE ST, MORAINE", 
    "lot": true, 
    "lat": "39.704248"
  },